[{"id":"531","name":"Miranda Martinez","email":"miranda.martinez@expaustralia.com.au","email2":"miranda@positivepropertyresults.com.au","phone":"421444145","city":"Caboolture","state":"","zip":"4510","country":"AU","status":"Active","level":"1","years":"0","influencer":"","lat":-27.0833,"lng":152.95},{"id":"292895","name":"Tanya Yvette Giorgio","email":"tanya.giorgio@exprealty.com","email2":"t.ashtongiorgio@gmail.com","phone":"(416) 400-0792","city":"Aurora","state":"ON","zip":"L4G 0H3","country":"CA","status":"Active","level":"4","years":"0","influencer":"","lat":43.9909,"lng":-79.4639},{"id":"292386","name":"Arthur Phillip Dadson","email":"arthur.dadson@exprealty.com","email2":"678222nbinc@gmail.com","phone":"(506) 875-5951","city":"Elsipogtog First Nation","state":"NB","zip":"E4W 5S6","country":"CA","status":"Active","level":"3","years":"0","influencer":"","lat":46.6493,"lng":-64.8842},{"id":"291122","name":"Mina Baghaee","email":"mina.baghaee@exprealty.com","email2":"listwithmina@gmail.com","phone":"(416) 996-3928","city":"Richmond Hill","state":"ON","zip":"l4e 4k5","country":"CA","status":"Active","level":"3","years":"0","influencer":"","lat":43.9423,"lng":-79.4595},{"id":"290308","name":"Gina Campoli","email":"gina.campoli@exprealty.com","email2":"campolirealestate@gmail.com","phone":"(647) 296-8953","city":"Toronto","state":"ON","zip":"M6a 2k5","country":"CA","status":"Active","level":"2","years":"0","influencer":"","lat":43.7193,"lng":-79.43},{"id":"288697","name":"Sarah Brennan","email":"sarah.brennan.288697@exprealty.com","email2":"sarah@sarahbrennan.ca","phone":"(506) 435-1178","city":"Wards creek","state":"NB","zip":"E4E 4T5","country":"CA","status":"Active","level":"1","years":"0","influencer":"","lat":45.7223,"lng":-65.5108},{"id":"285809","name":"Dina Medeiros","email":"dina.medeiros@exprealty.com","email2":"fdina.medeiros@gmail.com","phone":"(416) 721-4046","city":"Newmarket","state":"ON","zip":"L3y 7v4","country":"CA","status":"Active","level":"3","years":"0","influencer":"","lat":44.0414,"lng":-79.4534},{"id":"285537","name":"Tyler Giesbrecht","email":"tyler.giesbrecht@exprealty.com","email2":"info@tylergrealty.com","phone":"(403) 606-2158","city":"Calgary","state":"AB","zip":"T3M 2G4","country":"CA","status":"Active","level":"3","years":"0","influencer":"","lat":50.8902,"lng":-113.9892},{"id":"285525","name":"Jennie Marie Johnson","email":"jennie.johnson@exprealty.com","email2":"jennie@jenniejohnsonrealtor.com","phone":"(506) 380-6195","city":"Riverview","state":"NB","zip":"E1B 3E5","country":"CA","status":"Active","level":"5","years":"0","influencer":"","lat":46.0738,"lng":-64.755},{"id":"285198","name":"Niki Petti","email":"niki.petti@exprealty.com","email2":"nikipetti@icloud.com","phone":"(514) 886-4559","city":"Welland","state":"ON","zip":"L3C 0E7","country":"CA","status":"Active","level":"4","years":"0","influencer":"","lat":42.9989,"lng":-79.2466},{"id":"285196","name":"Tanya Petti","email":"tanya.petti@exprealty.com","email2":"tanyapettirealestate@gmail.com","phone":"(905) 321-1897","city":"Welland","state":"ON","zip":"L3C 0E7","country":"CA","status":"Active","level":"3","years":"0","influencer":"","lat":42.9989,"lng":-79.2466},{"id":"284579","name":"Carla Lupo","email":"carla.lupo@exprealty.com","email2":"carla@carlasells.ca","phone":"(647) 960-7544","city":"King city","state":"ON","zip":"L7B 0S7","country":"CA","status":"Active","level":"2","years":"0","influencer":"","lat":43.9327,"lng":-79.5104},{"id":"284500","name":"Abdhi Bhowmik","email":"abdhi.bhowmik@exprealty.com","email2":"abdhib.realtor@gmail.com","phone":"(506) 899-5671","city":"Dieppe","state":"NB","zip":"E1A 2C2","country":"CA","status":"Active","level":"6","years":"0","influencer":"","lat":46.0625,"lng":-64.7105},{"id":"282493","name":"April Pacheco","email":"april.pacheco@exprealty.com","email2":"april@pachecorealty.net","phone":"(506) 878-0476","city":"Moncton","state":"NB","zip":"E1G 5E2","country":"CA","status":"Active","level":"6","years":"0","influencer":"","lat":46.1117,"lng":-64.834},{"id":"281394","name":"Shania Ashley Morrison","email":"shania.morrison@exprealty.com","email2":"shaniasellsthecity@gmail.com","phone":"(506) 688-4999","city":"Moncton","state":"NB","zip":"E1G 1T2","country":"CA","status":"Active","level":"3","years":"0","influencer":"","lat":46.1117,"lng":-64.834},{"id":"279969","name":"Karina Gomez Cruz","email":"karina.gomezcruz@exprealty.com","email2":"karygocr@gmail.com","phone":"(647) 838-9384","city":"Toronto","state":"ON","zip":"M5R 2P6","country":"CA","status":"Active","level":"1","years":"0","influencer":"","lat":43.6705,"lng":-79.3901},{"id":"278927","name":"Fred Belliveau","email":"fred.belliveau@exprealty.com","email2":"fredbelliveaugma@gmail.com","phone":"(506) 381-5370","city":"Dieppe","state":"NB","zip":"E1A 7l9","country":"CA","status":"Active","level":"3","years":"0","influencer":"","lat":46.0625,"lng":-64.7105},{"id":"278738","name":"Jamie Isherwood","email":"jamie.isherwood@exprealty.com","email2":"jamieisherwood75@gmail.com","phone":"(289) 668-1668","city":"Thorold","state":"ON","zip":"l2v 5e5","country":"CA","status":"Active","level":"3","years":"0","influencer":"","lat":43.1017,"lng":-79.1997},{"id":"278683","name":"Amanda Griffiths","email":"amanda.griffiths@exprealty.com","email2":"realtorgirlsniagara@gmail.com","phone":"(905) 401-5142","city":"Niagara Falls","state":"ON","zip":"L2E 7K8","country":"CA","status":"Active","level":"3","years":"0","influencer":"","lat":43.0939,"lng":-79.0699},{"id":"276420","name":"Kaylee Arsenault","email":"kaylee.arsenault@exprealty.com","email2":"kaylee.arsenault96@gmail.com","phone":"(902) 315-2123","city":"Grand-Barachois","state":"NB","zip":"E4P 0T3","country":"CA","status":"Active","level":"6","years":"0","influencer":"","lat":46.2165,"lng":-64.5128},{"id":"275875","name":"Vince Nestico","email":"vince.nestico@exprealty.com","email2":"vincesellsvaughan@gmail.com","phone":"(647) 227-1007","city":"Wasaga Beach","state":"ON","zip":"L9Z 0H3","country":"CA","status":"Active","level":"2","years":"0","influencer":"","lat":44.5208,"lng":-80.0162},{"id":"274170","name":"Jashua Jimenez Rauda","email":"jashua.jimenezrauda@exprealty.com","email2":"jash.n.jimenez@gmail.com","phone":"(289) 788-0117","city":"Hamilton","state":"ON","zip":"L9A 2S3","country":"CA","status":"Active","level":"4","years":"0","influencer":"","lat":43.241,"lng":-79.8452},{"id":"273736","name":"Cassandra Anne Bendig","email":"cassandra.bendig@exprealty.com","email2":"cassie.heartandhome@gmail.com","phone":"(306) 350-9019","city":"Prince Albert","state":"SK","zip":"S6V 6N4","country":"CA","status":"Active","level":"3","years":"0","influencer":"","lat":53.2027,"lng":-105.7503},{"id":"272025","name":"Brian David Fitzgerald","email":"brian.fitzgerald@exprealty.com","email2":"brian@wethrivegroup.com","phone":"(905) 537-9837","city":"St. Catharines","state":"ON","zip":"L2N 6J4","country":"CA","status":"Active","level":"6","years":"0","influencer":"","lat":43.1751,"lng":-79.2389},{"id":"271419","name":"Christian Goguen","email":"christian.goguen@exprealty.com","email2":"kitgoguen@hotmail.com","phone":"(506) 863-5901","city":"Dieppe","state":"NB","zip":"E1A 6C6","country":"CA","status":"Active","level":"7","years":"0","influencer":"","lat":46.0625,"lng":-64.7105},{"id":"269078","name":"Jawad Fadel","email":"jawad.fadel@exprealty.com","email2":"jfadel100@gmail.com","phone":"(239) 384-9825","city":"St-Sauveur","state":"QC","zip":"j0R 1R4","country":"CA","status":"Active","level":"2","years":"0","influencer":"","lat":45.8373,"lng":-74.1387},{"id":"267388","name":"Timea Edelenji","email":"timea.edelenji@exprealty.com","email2":"lifewithtimea@gmail.com","phone":"(416) 725-9190","city":"Caledon East","state":"ON","zip":"L7C 1H1","country":"CA","status":"Active","level":"3","years":"0","influencer":"","lat":43.7467,"lng":-79.8304},{"id":"266683","name":"Rebecca McGarvey","email":"rebecca.mcgarvey@exprealty.com","email2":"rebecca@rebeccamcgarvey.com","phone":"(905) 260-4305","city":"Sunderland","state":"ON","zip":"L0C 1H0","country":"CA","status":"Active","level":"3","years":"0","influencer":"","lat":44.0371,"lng":-79.1964},{"id":"265863","name":"Carolin Brookings","email":"carolin.brookings@exprealty.com","email2":"caro@yourmonctonhomes.com","phone":"(506) 888-9993","city":"Moncton","state":"NB","zip":"E4R 2X1","country":"CA","status":"Active","level":"6","years":"0","influencer":"","lat":46.2324,"lng":-64.785},{"id":"264880","name":"Anna Marie Collette","email":"anna.collette@exprealty.com","email2":"annacolletterealestate@gmail.com","phone":"(506) 874-8757","city":"Sackville","state":"NB","zip":"E4L 2B6","country":"CA","status":"Active","level":"4","years":"1","influencer":"","lat":45.8919,"lng":-64.3699},{"id":"264614","name":"Todd William Antaya","email":"todd.antaya@exprealty.com","email2":"t.antaya@hotmail.com","phone":"(306) 981-6928","city":"Prince Albert","state":"SK","zip":"S6V 5R3","country":"CA","status":"Active","level":"3","years":"1","influencer":"","lat":53.2027,"lng":-105.7503},{"id":"263267","name":"Gabrielle Picard","email":"gabrielle.picard@exprealty.com","email2":"gabriellepicardrealtor@gmail.com","phone":"(506) 232-0028","city":"Memramcook","state":"NB","zip":"E4k 2a3","country":"CA","status":"Active","level":"6","years":"1","influencer":"","lat":46.0477,"lng":-64.6202},{"id":"263221","name":"Christien Belliveau","email":"christien.belliveau@exprealty.com","email2":"chrisbelliveau@yellowdoorteam.ca","phone":"(506) 866-6583","city":"Memramcook","state":"NB","zip":"E4K 3S9","country":"CA","status":"Active","level":"6","years":"1","influencer":"","lat":46.0477,"lng":-64.6202},{"id":"263217","name":"Melissa Doucet","email":"melissa.doucet@exprealty.com","email2":"melissa@yellowdoorteam.ca","phone":"(506) 864-4351","city":"Moncton","state":"NB","zip":"e1c 5z3","country":"CA","status":"Active","level":"5","years":"1","influencer":"Builders","lat":46.0888,"lng":-64.7723},{"id":"263090","name":"Tracy van Leemput","email":"tracy.vanleemput@exprealty.com","email2":"tracy@dreamhomesniagara.com","phone":"(905) 635-8007","city":"Stevensville","state":"ON","zip":"L0S 1S0","country":"CA","status":"Active","level":"5","years":"1","influencer":"","lat":43.0796,"lng":-79.199},{"id":"260578","name":"Ashley Cochran","email":"ashley.cochran@exprealty.com","email2":"ashley@ashleycochran.com","phone":"(506) 295-0072","city":"Moncton","state":"NB","zip":"E1E 2R2","country":"CA","status":"Active","level":"4","years":"1","influencer":"","lat":46.0599,"lng":-64.844},{"id":"260089","name":"Joelle Lafrance","email":"joelle.lafrance@exprealty.com","email2":"joellerealtorexp@gmail.com","phone":"(819) 923-9558","city":"L'Ange-Gardien","state":"QC","zip":"J8L 0V9","country":"CA","status":"Active","level":"3","years":"1","influencer":"","lat":45.599,"lng":-75.4206},{"id":"259111","name":"Erin Bomphray","email":"erin.bomphray@exprealty.com","email2":"erin@erinbomphray.ca","phone":"(306) 314-9762","city":"Prince Albert","state":"SK","zip":"S6V 5T9","country":"CA","status":"Active","level":"3","years":"1","influencer":"","lat":53.2027,"lng":-105.7503},{"id":"259107","name":"Brooke Karen Wozniak","email":"brooke.wozniak@exprealty.com","email2":"brooke@brookewozniak.com","phone":"(306) 980-9018","city":"Prince Albert","state":"SK","zip":"S6V 7W1","country":"CA","status":"Active","level":"2","years":"1","influencer":"","lat":53.2027,"lng":-105.7503},{"id":"257394","name":"Anthony Joseph Parazo","email":"anthony.parazo@exprealty.com","email2":"agentanthonyparazo@gmail.com","phone":"(416) 948-9711","city":"Burlington","state":"ON","zip":"L7T 4K7","country":"CA","status":"Active","level":"3","years":"1","influencer":"","lat":43.3018,"lng":-79.8497},{"id":"253210","name":"Brianna Figliuzzi","email":"brianna.figliuzzi@exprealty.com","email2":"brifigrealty@gmail.com","phone":"(514) 220-4063","city":"Oakville","state":"ON","zip":"L6H 0E4","country":"CA","status":"Active","level":"3","years":"1","influencer":"","lat":43.4543,"lng":-79.6921},{"id":"252508","name":"Michelle ANTOINETTE Heron","email":"michelle.heron@exprealty.com","email2":"agentmichelle.911@gmail.com","phone":"(416) 729-6424","city":"Mississauga","state":"ON","zip":"L5N 8C1","country":"CA","status":"Active","level":"3","years":"1","influencer":"","lat":43.5892,"lng":-79.7239},{"id":"250712","name":"Patricia Lynn Miller","email":"patricia.l.miller@exprealty.com","email2":"pmillerresults@gmail.com","phone":"(519) 851-1851","city":"London","state":"ON","zip":"N6C 4V5","country":"CA","status":"Active","level":"3","years":"1","influencer":"","lat":42.9799,"lng":-81.2609},{"id":"248144","name":"Jefferson Andrew Thompson","email":"jefferson.thompson@exprealty.com","email2":"jeff_a_thompson@live.ca","phone":"(226) 374-4075","city":"London","state":"ON","zip":"N6C 5Z5","country":"CA","status":"Active","level":"3","years":"1","influencer":"","lat":42.9799,"lng":-81.2609},{"id":"242456","name":"Alexandre Bellefeuille","email":"alexandre.bellefeuille@exprealty.com","email2":"alexandre@tonchevous.com","phone":"(506) 850-6272","city":"Moncton","state":"NB","zip":"E1E 3M8","country":"CA","status":"Active","level":"3","years":"1","influencer":"","lat":46.0599,"lng":-64.844},{"id":"241622","name":"Tammy Cook","email":"tammy.cook@exprealty.com","email2":"tammy@nataliedavison.ca","phone":"(506) 850-9132","city":"Dieppe","state":"NB","zip":"E1A 8L7","country":"CA","status":"Active","level":"3","years":"1","influencer":"","lat":46.0625,"lng":-64.7105},{"id":"240730","name":"Thomas Garland","email":"thomas.garland@exprealty.com","email2":"tom@garlandhomes.pro","phone":"(506) 232-0922","city":"Moncton","state":"NB","zip":"E1c 7B7","country":"CA","status":"Active","level":"3","years":"1","influencer":"","lat":46.0888,"lng":-64.7723},{"id":"235656","name":"Elizabeth Wall","email":"beth.wall@exprealty.com","email2":"elizabeth@wallrealestate.ca","phone":"(403) 689-9823","city":"Calgary","state":"AB","zip":"T2Y 4E5","country":"CA","status":"Active","level":"1","years":"2","influencer":"","lat":50.9093,"lng":-114.0721},{"id":"234641","name":"Cameron Brioux","email":"cameron.brioux@exprealty.com","email2":"info@cameronbrioux.com","phone":"(506) 899-1270","city":"Moncton","state":"NB","zip":"E1G 4Z7","country":"CA","status":"Active","level":"3","years":"2","influencer":"","lat":46.1117,"lng":-64.834},{"id":"226690","name":"Joshua Donald Miller","email":"joshua.d.miller@exprealty.com","email2":"josh@londonhomegroup.com","phone":"(519) 495-6663","city":"Talbotville","state":"ON","zip":"n5p 3r2","country":"CA","status":"Active","level":"3","years":"2","influencer":"","lat":42.7788,"lng":-81.2134},{"id":"210308","name":"Jaspreet Gill","email":"jasmine.gill.on@exprealty.com","email2":"jasminegill01@yahoo.ca","phone":"(416) 827-8431","city":"Brampton","state":"ON","zip":"L6P 0Z4","country":"CA","status":"Active","level":"3","years":"2","influencer":"","lat":43.7794,"lng":-79.7284},{"id":"202527","name":"Charolette Diana Batticks","email":"charolette.batticks@exprealty.com","email2":"charolettedianarealestate@gmail.com","phone":"(905) 999-3466","city":"Ajax","state":"ON","zip":"L1S 7P4","country":"CA","status":"Active","level":"1","years":"2","influencer":"","lat":43.8265,"lng":-78.9991},{"id":"187728","name":"Stefano Egidio Marcuzzi","email":"stefano.marcuzzi@exprealty.com","email2":"stefano@yourtrustedrealtygroup.com","phone":"(416) 389-0291","city":"Newmarket","state":"ON","zip":"L3X 0H3","country":"CA","status":"Active","level":"2","years":"3","influencer":"","lat":44.0464,"lng":-79.4874},{"id":"186093","name":"Georgette Marcuzzi","email":"georgette.marcuzzi@exprealty.com","email2":"georgette@yourtrustedrealtygroup.com","phone":"(416) 906-2417","city":"NEWMARKET","state":"ON","zip":"L3X 0H3","country":"CA","status":"Active","level":"1","years":"3","influencer":"Builders","lat":44.0464,"lng":-79.4874},{"id":"171911","name":"Esmeralda Elizabeth Jimenez Rauda","email":"esmeralda.jimenezrauda@exprealty.com","email2":"esmeraldajrrealestate@gmail.com","phone":"(905) 516-5776","city":"Hamilton","state":"ON","zip":"L8W 0B9","country":"CA","status":"Active","level":"3","years":"3","influencer":"","lat":43.2141,"lng":-79.8626},{"id":"169105","name":"Jacqueline Doris Corcoran","email":"jackie.corcoran@exprealty.com","email2":"jcorcoran70@gmail.com","phone":"(289) 441-1846","city":"Hamilton","state":"ON","zip":"L8M 3B9","country":"CA","status":"Active","level":"4","years":"3","influencer":"","lat":43.2522,"lng":-79.8489},{"id":"128224","name":"Rachel Miller","email":"rachel.miller.128224@exprealty.com","email2":"rachel@londonhomegroup.com","phone":"(519) 777-9500","city":"Talbotville","state":"ON","zip":"N5P 3T2","country":"CA","status":"Active","level":"2","years":"4","influencer":"","lat":42.7788,"lng":-81.2134},{"id":"128162","name":"Angela Wilson","email":"angela.c.wilson@exprealty.com","email2":"ang.wilson@icloud.com","phone":"(519) 933-5957","city":"London","state":"ON","zip":"N6H 2H1","country":"CA","status":"Active","level":"1","years":"4","influencer":"","lat":42.9899,"lng":-81.2607},{"id":"127102","name":"Rob Richards","email":"rob.richards@exprealty.com","email2":"rcrichards08@gmail.com","phone":"(226) 236-0613","city":"London","state":"ON","zip":"N6J 3T7","country":"CA","status":"Active","level":"2","years":"4","influencer":"","lat":42.9797,"lng":-81.2639},{"id":"118139","name":"Jose E. Monteiro","email":"jose.monteiro@exprealty.com","email2":"jose.elvino87@gmail.com","phone":"(519) 537-9091","city":"Burford","state":"ON","zip":"N0E 1A0","country":"CA","status":"Active","level":"3","years":"4","influencer":"","lat":43.0986,"lng":-80.5633},{"id":"100610","name":"Carrie Soave","email":"carrie.soave@exprealty.com","email2":"carriesoave@gmail.com","phone":"(905) 745-9011","city":"Niagara Falls","state":"ON","zip":"L2J 3B9","country":"CA","status":"Active","level":"2","years":"4","influencer":"Leaders","lat":43.1155,"lng":-79.0916},{"id":"15864","name":"Stephanie Jahn","email":"stephanie.jahn@expglobalspain.com","email2":"stephaniejahn15@gmail.com","phone":"664-01-77-36","city":"Sevilla","state":"","zip":"41003","country":"ES","status":"Active","level":"1","years":"0","influencer":"","lat":37.3923,"lng":-5.9873},{"id":"13935","name":"Radek Wa\u0142\u0119sa","email":"radek.walesa@exppoland.pl","email2":"radek.walesa@gmail.com","phone":"884792574","city":"Pozna\u0144","state":"","zip":"60-104","country":"PL","status":"Active","level":"1","years":"0","influencer":"","lat":52.4167,"lng":16.9667},{"id":"293595","name":"Mary Ramos","email":"mary.ramos@exprealty.com","email2":"maryrproperties@gmail.com","phone":"(417) 354-3226","city":"Monett","state":"MO","zip":"65708","country":"US","status":"Active","level":"4","years":"0","influencer":"","lat":36.9212,"lng":-93.9258},{"id":"293540","name":"Aleksandra Boyarskaya","email":"aleksandra.boyarskaya@exprealty.com","email2":"aleksandra.boyarskaya95@gmail.com","phone":"(719) 321-2392","city":"Castle Rock","state":"CO","zip":"80109","country":"US","status":"Active","level":"1","years":"0","influencer":"","lat":39.3643,"lng":-104.9014},{"id":"293414","name":"Caitlin Elizabeth Crete","email":"caitlin.crete@exprealty.com","email2":"ccretehomes@gmail.com","phone":"(530) 513-3748","city":"Durham","state":"CA","zip":"95938","country":"US","status":"Active","level":"6","years":"0","influencer":"","lat":39.633,"lng":-121.7886},{"id":"293383","name":"Sarah Erin Allen","email":"sarah.allen@exprealty.com","email2":"sarall@ymail.com","phone":"(708) 973-8024","city":"Hammond","state":"IN","zip":"46324","country":"US","status":"Active","level":"4","years":"0","influencer":"","lat":41.584,"lng":-87.5034},{"id":"293391","name":"Camille Strate Fairbanks","email":"camille.fairbanks@exprealty.com","email2":"cpsfairbanks@gmail.com","phone":"(480) 414-0142","city":"Mesa","state":"AZ","zip":"85201","country":"US","status":"Active","level":"7","years":"0","influencer":"","lat":33.4317,"lng":-111.8469},{"id":"293282","name":"Natasha Grable","email":"natasha.grable@exprealty.com","email2":"natashaegrable@gmail.com","phone":"(360) 280-1681","city":"Lacey","state":"WA","zip":"98516","country":"US","status":"Active","level":"3","years":"0","influencer":"","lat":47.1126,"lng":-122.7794},{"id":"293307","name":"Alexia Gentles","email":"alexia.gentles@exprealty.com","email2":"agentles98@gmail.com","phone":"(630) 209-1354","city":"Warner Robins","state":"GA","zip":"31093","country":"US","status":"Active","level":"4","years":"0","influencer":"","lat":32.6368,"lng":-83.6395},{"id":"293292","name":"Kathleen Castro","email":"kathleen.castro@exprealty.com","email2":"kcastro@me.com","phone":"(631) 327-8017","city":"Manorville","state":"NY","zip":"11949","country":"US","status":"Active","level":"2","years":"0","influencer":"","lat":40.8421,"lng":-72.8002},{"id":"293194","name":"Melissa Rice","email":"melissa.rice@exprealty.com","email2":"melissaricerealtor@gmail.com","phone":"(541) 901-9194","city":"North Bend","state":"OR","zip":"97459","country":"US","status":"Active","level":"2","years":"0","influencer":"","lat":43.4327,"lng":-124.2131},{"id":"293182","name":"Erika Nicole Choriego","email":"erika.choriego@exprealty.com","email2":"realestatebyerikachoriego@gmail.com","phone":"(316) 259-5920","city":"Wichita","state":"KS","zip":"67214","country":"US","status":"Active","level":"5","years":"0","influencer":"","lat":37.7051,"lng":-97.3133},{"id":"293074","name":"Alana Melendez","email":"alana.melendez@exprealty.com","email2":"alanamelendez24@gmail.com","phone":"(850) 529-2616","city":"Delmar","state":"DE","zip":"19940","country":"US","status":"Active","level":"7","years":"0","influencer":"","lat":38.477,"lng":-75.5759},{"id":"293035","name":"Cinderella Silva","email":"cinderella.silva@exprealty.com","email2":"cinderella@cinderellasilva.com","phone":"(209) 629-3847","city":"Carmichael","state":"CA","zip":"95608","country":"US","status":"Active","level":"4","years":"0","influencer":"","lat":38.6284,"lng":-121.3287},{"id":"292977","name":"Amanda Pieper","email":"amanda.pieper@exprealty.com","email2":"amanda.pieper14@gmail.com","phone":"(816) 590-6241","city":"Cameron","state":"MO","zip":"64429","country":"US","status":"Active","level":"1","years":"0","influencer":"","lat":39.7309,"lng":-94.2437},{"id":"292790","name":"Marija Wallace","email":"marija.wallace@exprealty.com","email2":"maya@theblairhomeco.com","phone":"(916) 606-6880","city":"Roseville","state":"CA","zip":"95747","country":"US","status":"Active","level":"6","years":"0","influencer":"","lat":38.7703,"lng":-121.3372},{"id":"292759","name":"Tiffany Hill","email":"tiffany.hill.292759@exprealty.com","email2":"bodaciousbites40@gmail.com","phone":"(660) 723-1648","city":"Warsaw","state":"MO","zip":"65355","country":"US","status":"Active","level":"1","years":"0","influencer":"","lat":38.2502,"lng":-93.3373},{"id":"292372","name":"Justin Rodriguez","email":"justin.rodriguez.292372@exprealty.com","email2":"jrodr6811@yahoo.com","phone":"(443) 306-2667","city":"Aquasco","state":"MD","zip":"20608","country":"US","status":"Active","level":"7","years":"0","influencer":"","lat":38.5825,"lng":-76.7149},{"id":"292726","name":"Krystina Palumbo","email":"krystina.palumbo@exprealty.com","email2":"mrspalumbo2014@gmail.com","phone":"(814) 591-5747","city":"DuBois","state":"PA","zip":"15801","country":"US","status":"Active","level":"3","years":"0","influencer":"","lat":41.126,"lng":-78.7527},{"id":"292518","name":"Holly Taylor Ritts-Valentine","email":"holly.ritts-valentine@exprealty.com","email2":"hvalentine11@yahoo.com","phone":"(480) 407-7379","city":"Phoenix","state":"AZ","zip":"85016","country":"US","status":"Active","level":"5","years":"0","influencer":"","lat":33.5021,"lng":-112.0305},{"id":"292620","name":"Cortney Jordan","email":"cortney.jordan@exprealty.com","email2":"cortneybroker@gmail.com","phone":"(509) 850-7086","city":"Chattaroy","state":"WA","zip":"99003","country":"US","status":"Active","level":"6","years":"0","influencer":"","lat":47.9192,"lng":-117.2921},{"id":"292548","name":"Amy Gipson Wingo","email":"amy.wingo@exprealty.com","email2":"amygwingo@gmail.com","phone":"(615) 948-9825","city":"Goodlettsville","state":"TN","zip":"37072","country":"US","status":"Active","level":"3","years":"0","influencer":"","lat":36.3417,"lng":-86.7212},{"id":"292503","name":"Kaylee Willett","email":"kaylee.willett@exprealty.com","email2":"kayleereagent@gmail.com","phone":"(425) 530-3878","city":"Arlington","state":"WA","zip":"98223","country":"US","status":"Active","level":"7","years":"0","influencer":"","lat":48.1829,"lng":-122.1121},{"id":"292487","name":"Mataya Jeanne Davis","email":"mataya.davis@exprealty.com","email2":"matayalewis24@gmail.com","phone":"(206) 530-1436","city":"Lakewood","state":"WA","zip":"98498","country":"US","status":"Active","level":"6","years":"0","influencer":"","lat":47.1591,"lng":-122.5485},{"id":"292396","name":"Nora Catherine Trotman","email":"nora.trotman@exprealty.com","email2":"noratrotman.tc@gmail.com","phone":"(850) 333-1732","city":"Pensacola","state":"FL","zip":"32505","country":"US","status":"Active","level":"5","years":"0","influencer":"","lat":30.4481,"lng":-87.2589},{"id":"292330","name":"Ireal Travis","email":"ireal.travis@exprealty.com","email2":"ireetravis@gmail.com","phone":"(708) 980-9387","city":"Chicago Heights","state":"IL","zip":"60411","country":"US","status":"Active","level":"4","years":"0","influencer":"","lat":41.5087,"lng":-87.5904},{"id":"292323","name":"Katin Rae Davis","email":"katin.davis@exprealty.com","email2":"katinraedavis@gmail.com","phone":"(850) 380-6740","city":"Pensacola","state":"FL","zip":"32502","country":"US","status":"Active","level":"4","years":"0","influencer":"","lat":30.4095,"lng":-87.2229},{"id":"292358","name":"Eugenia Mantuc","email":"eugenia.mantuc@exprealty.com","email2":"emantuc9@gmail.com","phone":"(704) 330-3743","city":"Mooresville","state":"NC","zip":"28117","country":"US","status":"Active","level":"1","years":"0","influencer":"","lat":35.584,"lng":-80.8685},{"id":"292090","name":"Prestlie Christine Hagar","email":"prestlie.hagar@exprealty.com","email2":"prestlie.realtor@gmail.com","phone":"(530) 219-5780","city":"Winters","state":"CA","zip":"95694","country":"US","status":"Active","level":"4","years":"0","influencer":"","lat":38.5322,"lng":-121.9676},{"id":"292087","name":"Michael Noel Blair Jr","email":"michael.blair@exprealty.com","email2":"michaelnblairjr@gmail.com","phone":"(916) 770-7462","city":"Roseville","state":"CA","zip":"95747","country":"US","status":"Active","level":"6","years":"0","influencer":"","lat":38.7703,"lng":-121.3372},{"id":"292066","name":"Roxanne Schwandt-Knutson","email":"roxanne.sk@exprealty.com","email2":"dreammakerpros@gmail.com","phone":"(920) 470-7451","city":"Neenah","state":"WI","zip":"54956","country":"US","status":"Active","level":"2","years":"0","influencer":"","lat":44.1811,"lng":-88.4792},{"id":"291896","name":"Jeri Hunt","email":"jeri.hunt@exprealty.com","email2":"jeriahunt@yahoo.com","phone":"(270) 836-2772","city":"Princeton","state":"KY","zip":"42445","country":"US","status":"Active","level":"3","years":"0","influencer":"","lat":37.1151,"lng":-87.8632},{"id":"291953","name":"Michelle Szweda","email":"michelle.szweda@exprealty.com","email2":"mlszweda1831@gmail.com","phone":"(920) 410-8802","city":"Oshkosh","state":"WI","zip":"54904","country":"US","status":"Active","level":"2","years":"0","influencer":"","lat":44.0304,"lng":-88.607},{"id":"291955","name":"Trish Ann Welzien","email":"trish.welzien@exprealty.com","email2":"trishwelzienre@gmail.com","phone":"(920) 257-9001","city":"Menasha","state":"WI","zip":"54952","country":"US","status":"Active","level":"2","years":"0","influencer":"","lat":44.2112,"lng":-88.4175},{"id":"291807","name":"Adam Michael Hasenfus","email":"adam.hasenfus@exprealty.com","email2":"adam.hasenfus@gmail.com","phone":"(920) 404-5172","city":"Sherwood","state":"WI","zip":"54169","country":"US","status":"Active","level":"2","years":"0","influencer":"","lat":44.1764,"lng":-88.2779},{"id":"291954","name":"Julie Ann Ketola","email":"julie.ketola@exprealty.com","email2":"thejulieketola@gmail.com","phone":"(920) 203-5427","city":"Oshkosh","state":"WI","zip":"54904","country":"US","status":"Active","level":"1","years":"0","influencer":"","lat":44.0304,"lng":-88.607},{"id":"291929","name":"Roberto Arenas","email":"roberto.arenas@exprealty.com","email2":"robsellinghomes@aol.com","phone":"(407) 615-9443","city":"Kissimmee","state":"FL","zip":"34743","country":"US","status":"Active","level":"7","years":"0","influencer":"","lat":28.3306,"lng":-81.3544},{"id":"291890","name":"Chelsea Gorman","email":"chelsea.gorman@exprealty.com","email2":"chelseagorman305@gmail.com","phone":"(305) 807-3568","city":"South Miami","state":"FL","zip":"33143","country":"US","status":"Active","level":"2","years":"0","influencer":"","lat":25.7022,"lng":-80.2978},{"id":"291934","name":"Ricardo Jose Martinez","email":"ricardo.j.martinez@exprealty.com","email2":"rjhomes.mi@gmail.com","phone":"(313) 740-6974","city":"Detroit","state":"MI","zip":"48217","country":"US","status":"Active","level":"3","years":"0","influencer":"","lat":42.2719,"lng":-83.1545},{"id":"291909","name":"Shanika Shantara Olden","email":"shanika.olden@exprealty.com","email2":"shanikaolden@icloud.com","phone":"(910) 922-2559","city":"Raeford","state":"NC","zip":"28376","country":"US","status":"Active","level":"3","years":"0","influencer":"","lat":34.989,"lng":-79.2228},{"id":"291474","name":"Bryanna Nicole Athens","email":"bryanna.athens@exprealty.com","email2":"bryanna@athensrealtygroup.com","phone":"(916) 945-7300","city":"Roseville","state":"CA","zip":"95747","country":"US","status":"Active","level":"5","years":"0","influencer":"","lat":38.7703,"lng":-121.3372},{"id":"291689","name":"Kervensky Demmat","email":"kervensky.demmat@exprealty.com","email2":"dkfinancialg@gmail.com","phone":"(321) 217-8840","city":"orlando","state":"FL","zip":"32805","country":"US","status":"Active","level":"7","years":"0","influencer":"","lat":28.5302,"lng":-81.4045},{"id":"291765","name":"Blair McKinsey Campbell","email":"blair.campbell@exprealty.com","email2":"blair@heirloomrealtygroup.com","phone":"(214) 938-0921","city":"Frisco","state":"TX","zip":"75034","country":"US","status":"Active","level":"6","years":"0","influencer":"","lat":33.1499,"lng":-96.8241},{"id":"291542","name":"Kyle Wesley Achziger","email":"kyle.achziger@exprealty.com","email2":"kwachziger@gmail.com","phone":"(406) 499-6750","city":"Kalispell","state":"MT","zip":"59901","country":"US","status":"Active","level":"1","years":"0","influencer":"","lat":48.2028,"lng":-114.3039},{"id":"291485","name":"Ashlyn Nicole Highbaugh","email":"ashlyn.highbaugh@exprealty.com","email2":"ashlynrealty@gmail.com","phone":"(916) 532-6141","city":"Citrus Heights","state":"CA","zip":"95621","country":"US","status":"Active","level":"4","years":"0","influencer":"","lat":38.6952,"lng":-121.3075},{"id":"291212","name":"Nicole Diane Waters Green","email":"nicole.green@exprealty.com","email2":"nicolegreenrealestate@gmail.com","phone":"(407) 868-1181","city":"Rockledge","state":"FL","zip":"32955","country":"US","status":"Active","level":"3","years":"0","influencer":"","lat":28.3134,"lng":-80.7319},{"id":"290806","name":"Erika Colon LLC","email":"erika.colonllc@exprealty.com","email2":"ecolonrealty@gmail.com","phone":"(407) 864-5369","city":"Saint Cloud","state":"FL","zip":"34771","country":"US","status":"Active","level":"1","years":"0","influencer":"","lat":28.273,"lng":-81.2003},{"id":"291231","name":"Johnna Melton","email":"johnna.melton@exprealty.com","email2":"johnna@aboveandbeyondrealty.net","phone":"(469) 323-2602","city":"Aubrey","state":"TX","zip":"76227","country":"US","status":"Active","level":"7","years":"0","influencer":"","lat":33.292,"lng":-96.9879},{"id":"291130","name":"Albert Withers","email":"albert.withers@exprealty.com","email2":"carlyleproperties@gmail.com","phone":"(803) 640-3519","city":"Aiken","state":"SC","zip":"29803","country":"US","status":"Active","level":"7","years":"0","influencer":"","lat":33.5059,"lng":-81.6951},{"id":"291193","name":"Elizabeth R Waters","email":"lisa.waters@exprealty.com","email2":"lisawatersrealestate@gmail.com","phone":"(630) 746-7973","city":"Batavia","state":"IL","zip":"60510","country":"US","status":"Active","level":"1","years":"0","influencer":"","lat":41.8482,"lng":-88.3098},{"id":"291206","name":"Tarah Schwisow","email":"tarah.schwisow@exprealty.com","email2":"tarahschwisow@gmail.com","phone":"(509) 939-9163","city":"Spokane","state":"WA","zip":"99204","country":"US","status":"Active","level":"6","years":"0","influencer":"","lat":47.6501,"lng":-117.4298},{"id":"291116","name":"Melissa Martin","email":"melissa.martin.291116@exprealty.com","email2":"mcmartin6405@aol.com","phone":"(314) 568-3621","city":"Saint Charles","state":"MO","zip":"63301","country":"US","status":"Active","level":"8","years":"0","influencer":"","lat":38.8014,"lng":-90.5065},{"id":"291150","name":"Matthew Blodgett","email":"matthew.blodgett@exprealty.com","email2":"matt@zeeba.co","phone":"(406) 565-8760","city":"Bozeman","state":"MT","zip":"59718","country":"US","status":"Active","level":"3","years":"0","influencer":"","lat":45.6681,"lng":-111.2404},{"id":"291099","name":"Jacob Ryan Haseley","email":"jacob.haseley@exprealty.com","email2":"haseleyjacob@gmail.com","phone":"(616) 450-4604","city":"Wyoming","state":"MI","zip":"49418","country":"US","status":"Active","level":"4","years":"0","influencer":"","lat":42.8939,"lng":-85.7619},{"id":"291034","name":"Jaqualine Newberry","email":"jaqualine.newberry@exprealty.com","email2":"homesbyjaqualine@gmail.com","phone":"(240) 538-2450","city":"California","state":"MD","zip":"20619","country":"US","status":"Active","level":"2","years":"0","influencer":"","lat":38.3006,"lng":-76.5312},{"id":"290980","name":"Kimberley Sunlin","email":"kimberley.sunlin@exprealty.com","email2":"ksunlin@sbcglobal.net","phone":"(214) 403-5458","city":"Plano","state":"TX","zip":"75025","country":"US","status":"Active","level":"7","years":"0","influencer":"","lat":33.0784,"lng":-96.7291},{"id":"290832","name":"Daniel Meyer Callton","email":"daniel.callton@exprealty.com","email2":"danielmcallton@gmail.com","phone":"(517) 395-6994","city":"Okemos","state":"MI","zip":"48864","country":"US","status":"Active","level":"2","years":"0","influencer":"","lat":42.7053,"lng":-84.4187},{"id":"290756","name":"Ellie Marie Lyro","email":"ellie.lyro@exprealty.com","email2":"ellielyro@gmail.com","phone":"(253) 380-8205","city":"Tacoma","state":"WA","zip":"98405","country":"US","status":"Active","level":"8","years":"0","influencer":"","lat":47.2484,"lng":-122.4644},{"id":"290541","name":"Jennifer Gayle Golden","email":"jennifer.golden@exprealty.com","email2":"hello@jenagolden.com","phone":"(678) 640-3249","city":"Cumming","state":"GA","zip":"30041","country":"US","status":"Active","level":"2","years":"0","influencer":"","lat":34.2037,"lng":-84.1031},{"id":"290654","name":"Shivang Kapatel","email":"shivang.kapatel@exprealty.com","email2":"realtybyshiv@gmail.com","phone":"(410) 948-0640","city":"Sterling Heights","state":"MI","zip":"48312","country":"US","status":"Active","level":"2","years":"0","influencer":"","lat":42.5592,"lng":-83.0029},{"id":"290629","name":"Rachael Ruiz De Velasco","email":"rachael.ruizdevelasco@exprealty.com","email2":"rachael@reachouttorachael.com","phone":"(214) 783-1180","city":"Tom Bean","state":"TX","zip":"75489","country":"US","status":"Active","level":"5","years":"0","influencer":"","lat":33.5193,"lng":-96.4843},{"id":"290617","name":"Kathleen Casarin","email":"kathleen.casarin@exprealty.com","email2":"kathycsells@gmail.com","phone":"(570) 351-1444","city":"Archbald","state":"PA","zip":"18403","country":"US","status":"Active","level":"1","years":"0","influencer":"","lat":41.4876,"lng":-75.5334},{"id":"290458","name":"Kenneth Joseph McNinch","email":"kenneth.mcninch@exprealty.com","email2":"kenmcninch12@gmail.com","phone":"(916) 532-7486","city":"Rocklin","state":"CA","zip":"95765","country":"US","status":"Active","level":"4","years":"0","influencer":"","lat":38.8136,"lng":-121.2677},{"id":"290405","name":"Tamia Haines","email":"tamia.haines@exprealty.com","email2":"thebloomesthetics@gmail.com","phone":"(678) 699-6211","city":"Midland","state":"GA","zip":"31820","country":"US","status":"Active","level":"5","years":"0","influencer":"","lat":32.5616,"lng":-84.8559},{"id":"290377","name":"Carol May Boyle","email":"carol.boyle@exprealty.com","email2":"carolmayboyle@gmail.com","phone":"(214) 789-0178","city":"Mckinney","state":"TX","zip":"75069","country":"US","status":"Active","level":"9","years":"0","influencer":"","lat":33.1966,"lng":-96.6085},{"id":"290354","name":"Savannah S Long","email":"savannah.long@exprealty.com","email2":"savannah@savannahsellsdenver.com","phone":"(703) 966-2864","city":"Thornton","state":"CO","zip":"80241","country":"US","status":"Active","level":"5","years":"0","influencer":"","lat":39.9274,"lng":-104.9548},{"id":"290292","name":"Ashley Brooke Ramos","email":"ashley.b.ramos@exprealty.com","email2":"ashley@homesbyashleyramos.com","phone":"(707) 592-5342","city":"Vacaville","state":"CA","zip":"95687","country":"US","status":"Active","level":"4","years":"0","influencer":"","lat":38.3482,"lng":-121.9538},{"id":"290238","name":"Christine Ann Weinstein","email":"christine.weinstein@exprealty.com","email2":"christinesellstheshore@gmail.com","phone":"(508) 463-6565","city":"Bradenton","state":"FL","zip":"34203","country":"US","status":"Active","level":"4","years":"0","influencer":"","lat":27.4547,"lng":-82.5359},{"id":"290164","name":"Monica Michelle Tarrant","email":"monica.tarrant@exprealty.com","email2":"propertybymonica@gmail.com","phone":"(916) 756-5467","city":"Elk Grove","state":"CA","zip":"95624","country":"US","status":"Active","level":"4","years":"0","influencer":"","lat":38.4232,"lng":-121.3599},{"id":"290143","name":"Megan Oh","email":"megan.oh@exprealty.com","email2":"team@meganoh.com","phone":"(469) 656-8150","city":"Allen","state":"TX","zip":"75002","country":"US","status":"Active","level":"8","years":"0","influencer":"","lat":33.0934,"lng":-96.6454},{"id":"289910","name":"Hannah Blazon","email":"hannah.blazon@exprealty.com","email2":"hannah.blazon@gmail.com","phone":"(805) 760-4702","city":"Cheney","state":"WA","zip":"99004","country":"US","status":"Active","level":"5","years":"0","influencer":"","lat":47.4943,"lng":-117.5834},{"id":"289904","name":"Tania Gardere MacLeod","email":"tania.macleod@exprealty.com","email2":"tania@itstheperfectspot.com","phone":"(404) 964-2267","city":"Roswell","state":"GA","zip":"30075","country":"US","status":"Active","level":"2","years":"0","influencer":"","lat":34.0408,"lng":-84.3859},{"id":"289906","name":"Eunice Okai Eshun","email":"eunice.okaieshun@exprealty.com","email2":"eopendoors@outlook.com","phone":"(301) 974-2639","city":"Bowie","state":"MD","zip":"20716","country":"US","status":"Active","level":"2","years":"0","influencer":"","lat":38.9263,"lng":-76.7098},{"id":"289862","name":"Angela Conaway Wallace","email":"angela.wallace@exprealty.com","email2":"angela.wallace.exp@gmail.com","phone":"(719) 207-2986","city":"Cordes Lakes","state":"AZ","zip":"86333","country":"US","status":"Active","level":"4","years":"0","influencer":"","lat":34.3655,"lng":-112.1296},{"id":"289748","name":"Deneshia Smith","email":"deneshia.smith@exprealty.com","email2":"deneshiasmith.realtor@gmail.com","phone":"(501) 414-6525","city":"Thonotosassa","state":"FL","zip":"33592","country":"US","status":"Active","level":"2","years":"0","influencer":"","lat":28.0617,"lng":-82.3082},{"id":"289674","name":"Taylor Michelle Wilkins","email":"taylor.wilkins@exprealty.com","email2":"taylormichellewilkins@gmail.com","phone":"(901) 232-9453","city":"Harlem","state":"GA","zip":"30814","country":"US","status":"Active","level":"6","years":"0","influencer":"","lat":33.417,"lng":-82.3097},{"id":"289540","name":"Taylor Fleming","email":"taylor.fleming@exprealty.com","email2":"tfleming.realestate@gmail.com","phone":"(772) 254-3621","city":"Port St Lucie","state":"FL","zip":"34953","country":"US","status":"Active","level":"1","years":"0","influencer":"","lat":27.2625,"lng":-80.3793},{"id":"289519","name":"Sunny Konop","email":"sunny.konop@exprealty.com","email2":"sunnykonop@gmail.com","phone":"(253) 709-7777","city":"Ravensdale","state":"WA","zip":"98051","country":"US","status":"Active","level":"6","years":"0","influencer":"","lat":47.3407,"lng":-121.8874},{"id":"289490","name":"Jennifer Lee Hite","email":"jennifer.hite@exprealty.com","email2":"cleanerwithmellc@gmail.com","phone":"(850) 295-3111","city":"Fanning Springs","state":"FL","zip":"32693","country":"US","status":"Active","level":"6","years":"0","influencer":"","lat":29.6746,"lng":-82.8117},{"id":"289487","name":"Eileen Hyacinth Ferguson","email":"eileen.ferguson@exprealty.com","email2":"eileen@eileenferguson.com","phone":"(631) 381-2133","city":"Ridge","state":"NY","zip":"11961","country":"US","status":"Active","level":"2","years":"0","influencer":"","lat":40.9018,"lng":-72.8881},{"id":"289458","name":"Jenni Lynn Ko","email":"jenni.ko@exprealty.com","email2":"jennisellsfolsom@gmail.com","phone":"(916) 899-0851","city":"Folsom","state":"CA","zip":"95630","country":"US","status":"Active","level":"1","years":"0","influencer":"","lat":38.6709,"lng":-121.1529},{"id":"289413","name":"Geraldine Seymour","email":"geraldine.seymour@exprealty.com","email2":"geri_seymour@yahoo.com","phone":"(760) 803-3720","city":"Goodyear","state":"AZ","zip":"85395","country":"US","status":"Active","level":"4","years":"0","influencer":"","lat":33.479,"lng":-112.3947},{"id":"289331","name":"Harley Danielle Hires","email":"harley.hires@exprealty.com","email2":"harleyhires@gmail.com","phone":"(352) 318-8462","city":"Old Town","state":"FL","zip":"32680","country":"US","status":"Active","level":"5","years":"0","influencer":"","lat":29.6699,"lng":-83.005},{"id":"289274","name":"Richard Colter Houle","email":"richard.houle@exprealty.com","email2":"dunnellonman@gmail.com","phone":"(352) 888-6000","city":"Dunnellon","state":"FL","zip":"34432","country":"US","status":"Active","level":"5","years":"0","influencer":"","lat":29.1015,"lng":-82.3413},{"id":"289226","name":"Emelinda Levett Houle","email":"emelinda.houle@exprealty.com","email2":"emylac@yahoo.com","phone":"(352) 216-2007","city":"Dunnellon","state":"FL","zip":"34432","country":"US","status":"Active","level":"4","years":"0","influencer":"","lat":29.1015,"lng":-82.3413},{"id":"289242","name":"Hailey Elizabeth Smith","email":"hailey.smith@exprealty.com","email2":"realtorhaileysmith@gmail.com","phone":"(562) 881-8053","city":"Corona","state":"CA","zip":"92882","country":"US","status":"Active","level":"5","years":"0","influencer":"","lat":33.8419,"lng":-117.6043},{"id":"289236","name":"Jesse Daniel Bernal","email":"jesse.bernal@exprealty.com","email2":"jessejubilee@icloud.com","phone":"(408) 591-0811","city":"Roseville","state":"CA","zip":"95747","country":"US","status":"Active","level":"6","years":"0","influencer":"","lat":38.7703,"lng":-121.3372},{"id":"289152","name":"Kara P Saghir","email":"kara.saghir@exprealty.com","email2":"karasaghir.realtor@gmail.com","phone":"(317) 402-6076","city":"Sanford","state":"FL","zip":"32771","country":"US","status":"Active","level":"5","years":"0","influencer":"","lat":28.8013,"lng":-81.285},{"id":"289136","name":"Tara Lynn Miller","email":"tara.l.miller@exprealty.com","email2":"tara@movingwithmiller.com","phone":"(937) 418-4538","city":"Troy","state":"OH","zip":"45373","country":"US","status":"Active","level":"2","years":"0","influencer":"","lat":40.0374,"lng":-84.2032},{"id":"289118","name":"Monica Elena Redondo","email":"monica.e.redondo@exprealty.com","email2":"casasdeidaho@gmail.com","phone":"(208) 991-2352","city":"Boise","state":"ID","zip":"83705","country":"US","status":"Active","level":"6","years":"0","influencer":"","lat":43.5851,"lng":-116.2191},{"id":"289081","name":"Ivanna Rosario","email":"ivanna.rosario@exprealty.com","email2":"ivannar6496@gmail.com","phone":"(407) 990-7303","city":"Four Corners","state":"FL","zip":"34747","country":"US","status":"Active","level":"1","years":"0","influencer":"","lat":28.3037,"lng":-81.5898},{"id":"289054","name":"Kelly Thornhill-McCampbell","email":"kelly.thornhill-mccampbell@exprealty.com","email2":"kelly@kellymccampbellhome.com","phone":"(707) 761-5056","city":"Vacaville","state":"CA","zip":"95688","country":"US","status":"Active","level":"3","years":"0","influencer":"","lat":38.3847,"lng":-121.9887},{"id":"288924","name":"Andreea Matei","email":"andreea.matei@exprealty.com","email2":"matei.andreea@gmail.com","phone":"(248) 345-9285","city":"Commerce Township","state":"MI","zip":"48390","country":"US","status":"Active","level":"2","years":"0","influencer":"","lat":42.5582,"lng":-83.4773},{"id":"288910","name":"Cristal Asencio De Leon","email":"cristal.asenciodeleon@exprealty.com","email2":"caleon116@gmail.com","phone":"(206) 489-6513","city":"Federal Way","state":"WA","zip":"98023","country":"US","status":"Active","level":"6","years":"0","influencer":"","lat":47.3104,"lng":-122.3612},{"id":"288626","name":"Nicole Johnson","email":"nicole.johnson.288626@exprealty.com","email2":"nicolejrealestate@gmail.com","phone":"(253) 389-3830","city":"Puyallup","state":"WA","zip":"98373","country":"US","status":"Active","level":"6","years":"0","influencer":"","lat":47.1284,"lng":-122.3219},{"id":"288581","name":"Conner Joseph Bokma","email":"conner.bokma@exprealty.com","email2":"cbokma@hancock-enterprises.com","phone":"(406) 366-2830","city":"Billings","state":"MT","zip":"59106","country":"US","status":"Active","level":"5","years":"0","influencer":"","lat":45.7753,"lng":-108.6519},{"id":"288523","name":"Mariah Kamal","email":"mariah.kamal@exprealty.com","email2":"livingwithmk@gmail.com","phone":"(407) 797-1809","city":"Four Corners","state":"FL","zip":"34747","country":"US","status":"Active","level":"1","years":"0","influencer":"","lat":28.3037,"lng":-81.5898},{"id":"288424","name":"Maria Gil","email":"maria.gil@exprealty.com","email2":"lnapoles2025@gmail.com","phone":"1 (813) 785-5958","city":"Brandon","state":"FL","zip":"33511","country":"US","status":"Active","level":"3","years":"0","influencer":"","lat":27.9056,"lng":-82.2881},{"id":"288491","name":"Citlally Pedraza","email":"citlally.pedraza@exprealty.com","email2":"citlallyrealestate@gmail.com","phone":"(208) 982-8706","city":"Nampa","state":"ID","zip":"83686","country":"US","status":"Active","level":"5","years":"0","influencer":"","lat":43.5441,"lng":-116.566},{"id":"288461","name":"Candida Shriver","email":"candida.shriver@exprealty.com","email2":"candida.properties@gmail.com","phone":"(304) 893-1126","city":"South Charleston","state":"WV","zip":"25303","country":"US","status":"Active","level":"2","years":"0","influencer":"","lat":38.3598,"lng":-81.6859},{"id":"288455","name":"Michelle Fullmer","email":"michelle.fullmer@exprealty.com","email2":"mfullmer00@gmail.com","phone":"(443) 800-1676","city":"Baltimore","state":"MD","zip":"21224","country":"US","status":"Active","level":"2","years":"0","influencer":"","lat":39.2876,"lng":-76.5568},{"id":"288456","name":"Kimberly Kussman","email":"kimberly.kussman@exprealty.com","email2":"kimkussmanrealtor@gmail.com","phone":"(978) 273-4378","city":"Sandy","state":"UT","zip":"84093","country":"US","status":"Active","level":"5","years":"0","influencer":"","lat":40.5927,"lng":-111.831},{"id":"288352","name":"Jessica A Thompson","email":"jessica.a.thompson@exprealty.com","email2":"ja1thompson@yahoo.com","phone":"(480) 241-2090","city":"Gilbert","state":"AZ","zip":"85296","country":"US","status":"Active","level":"3","years":"0","influencer":"","lat":33.3354,"lng":-111.7406},{"id":"288421","name":"Christina B Carrera","email":"christina.carrera@exprealty.com","email2":"christina@ahukocaballi.com","phone":"(760) 777-0929","city":"Cathedral City","state":"CA","zip":"92234","country":"US","status":"Active","level":"1","years":"0","influencer":"","lat":33.8098,"lng":-116.4665},{"id":"288390","name":"Alexis Chae Horyza","email":"alexis.horyza@exprealty.com","email2":"alexishoryzarealestate@gmail.com","phone":"(208) 863-0730","city":"Meridian","state":"ID","zip":"83646","country":"US","status":"Active","level":"2","years":"0","influencer":"","lat":43.6498,"lng":-116.4306},{"id":"288383","name":"Hilary Lowell Fisher","email":"hilary.fisher@exprealty.com","email2":"hilaryfisher13@gmail.com","phone":"(425) 750-2885","city":"Snohomish","state":"WA","zip":"98290","country":"US","status":"Active","level":"7","years":"0","influencer":"","lat":47.8954,"lng":-122.0716},{"id":"288330","name":"Brittany Marie Smith","email":"brittany.m.smith@exprealty.com","email2":"brittanysmith@abbottmartingroup.com","phone":"(770) 827-4284","city":"Panama City Beach","state":"FL","zip":"32413","country":"US","status":"Active","level":"5","years":"0","influencer":"","lat":30.3105,"lng":-85.9106},{"id":"288263","name":"Matthew J Thompson","email":"matthew.j.thompson@exprealty.com","email2":"matt@tgarizon.com","phone":"(480) 980-5037","city":"Gilbert","state":"AZ","zip":"85296","country":"US","status":"Active","level":"3","years":"0","influencer":"","lat":33.3354,"lng":-111.7406},{"id":"286226","name":"Rebecca Carolyn Goss","email":"rebecca.goss@exprealty.com","email2":"rcgossrealestate@gmail.com","phone":"(214) 709-2444","city":"Dupont","state":"WA","zip":"98327","country":"US","status":"Active","level":"6","years":"0","influencer":"","lat":47.0909,"lng":-122.6567},{"id":"288169","name":"Kimberly Fingerson","email":"kimberly.fingerson@exprealty.com","email2":"kimfingerson.re@gmail.com","phone":"(206) 914-3267","city":"Buckley","state":"WA","zip":"98321","country":"US","status":"Active","level":"6","years":"0","influencer":"","lat":47.1524,"lng":-122.0621},{"id":"288171","name":"Melanie Mohr","email":"melanie.mohr@exprealty.com","email2":"melanie.mohr92@gmail.com","phone":"(916) 980-9307","city":"El Dorado Hills","state":"CA","zip":"95762","country":"US","status":"Active","level":"6","years":"0","influencer":"","lat":38.685,"lng":-121.068},{"id":"288160","name":"Jill Leinea Waash","email":"jill.waash@exprealty.com","email2":"jillwaash@gmail.com","phone":"(925) 301-6441","city":"Discovery Bay","state":"CA","zip":"94505","country":"US","status":"Active","level":"4","years":"0","influencer":"","lat":37.8989,"lng":-121.6054},{"id":"288096","name":"Carina Ann Timmons","email":"carina.timmons@exprealty.com","email2":"carinatimmons@gmail.com","phone":"(469) 307-8242","city":"Meridian","state":"ID","zip":"83646","country":"US","status":"Active","level":"5","years":"0","influencer":"","lat":43.6498,"lng":-116.4306},{"id":"288028","name":"Emily Jo Briske","email":"emily.briske@exprealty.com","email2":"emily.youngbloodrealty@gmail.com","phone":"(952) 693-5230","city":"Moore","state":"OK","zip":"73160","country":"US","status":"Active","level":"3","years":"0","influencer":"","lat":35.334,"lng":-97.4768},{"id":"286434","name":"Amy Carolyn-Ebert Koh","email":"amy.koh@exprealty.com","email2":"amy@amykoh.realtor","phone":"(214) 298-2460","city":"Dallas","state":"TX","zip":"75231","country":"US","status":"Active","level":"3","years":"0","influencer":"","lat":32.8756,"lng":-96.7495},{"id":"286223","name":"Christopher John Della Maggiore","email":"christopher.dellamaggiore@exprealty.com","email2":"cdellama@yahoo.com","phone":"(209) 247-7311","city":"Davis","state":"CA","zip":"95618","country":"US","status":"Active","level":"4","years":"0","influencer":"","lat":38.5462,"lng":-121.6676},{"id":"286143","name":"Ashley Abigail Gentles","email":"ashley.gentles@exprealty.com","email2":"ashleygentles77@gmail.com","phone":"(630) 207-7542","city":"Austell","state":"GA","zip":"30106","country":"US","status":"Active","level":"3","years":"0","influencer":"","lat":33.8369,"lng":-84.6307},{"id":"285878","name":"Brianna Marie Levitt","email":"brianna.levitt@exprealty.com","email2":"princesscheesehead@gmail.com","phone":"(801) 231-9166","city":"Bowling Green","state":"KY","zip":"42101","country":"US","status":"Active","level":"3","years":"0","influencer":"","lat":37.0174,"lng":-86.4518},{"id":"285671","name":"Sarah Jones","email":"sarah.jones.285671@exprealty.com","email2":"sljones9256@gmail.com","phone":"(901) 870-8971","city":"Atlanta","state":"GA","zip":"30318","country":"US","status":"Active","level":"3","years":"0","influencer":"","lat":33.7865,"lng":-84.4454},{"id":"285680","name":"Jessica Marie Maddern","email":"jessica.maddern@exprealty.com","email2":"jessica@maddernteam.com","phone":"(214) 608-6887","city":"Plano","state":"TX","zip":"75025","country":"US","status":"Active","level":"7","years":"0","influencer":"","lat":33.0784,"lng":-96.7291},{"id":"285649","name":"Lawrence Jay Levine","email":"lawrence.levine@exprealty.com","email2":"larry@maddernteam.com","phone":"(972) 365-5319","city":"Richardson","state":"TX","zip":"75080","country":"US","status":"Active","level":"8","years":"0","influencer":"","lat":32.966,"lng":-96.7452},{"id":"285648","name":"Stephanie Feltus","email":"stephanie.feltus@exprealty.com","email2":"stephanie@maddernteam.com","phone":"(940) 595-5841","city":"Plano","state":"TX","zip":"75074","country":"US","status":"Active","level":"8","years":"0","influencer":"","lat":33.0277,"lng":-96.6777},{"id":"285647","name":"Heather Deann Taylor","email":"heather.d.taylor@exprealty.com","email2":"heather@maddernteam.com","phone":"(469) 261-3860","city":"Plano","state":"TX","zip":"75075","country":"US","status":"Active","level":"8","years":"0","influencer":"","lat":33.025,"lng":-96.7397},{"id":"285646","name":"Bradley Jon Maddern","email":"bradley.maddern@exprealty.com","email2":"brad@maddernteam.com","phone":"(214) 509-8399","city":"Plano","state":"TX","zip":"75025","country":"US","status":"Active","level":"7","years":"0","influencer":"","lat":33.0784,"lng":-96.7291},{"id":"285431","name":"Jasmine Morais","email":"jasmine.morais@exprealty.com","email2":"jasminenmorais@gmail.com","phone":"(404) 940-9755","city":"Villa Rica","state":"GA","zip":"30180","country":"US","status":"Active","level":"3","years":"0","influencer":"","lat":33.7173,"lng":-84.9297},{"id":"285461","name":"Aundrea Swaner","email":"aundrea.swaner@exprealty.com","email2":"aundrea.swaner@gmail.com","phone":"(435) 491-0408","city":"Loa","state":"UT","zip":"84747","country":"US","status":"Active","level":"3","years":"0","influencer":"","lat":38.4415,"lng":-111.5958},{"id":"285427","name":"Merissa Tara McCullugh","email":"merissa.mccullugh@exprealty.com","email2":"merissamccullugh1@gmail.com","phone":"(541) 505-2198","city":"Queen Creek","state":"AZ","zip":"85142","country":"US","status":"Active","level":"3","years":"0","influencer":"","lat":33.2848,"lng":-111.6561},{"id":"285452","name":"Stacy Simpson","email":"stacy.simpson@exprealty.com","email2":"stacyssimpson@yahoo.com","phone":"(586) 718-9431","city":"Macomb","state":"MI","zip":"48044","country":"US","status":"Active","level":"1","years":"0","influencer":"","lat":42.6442,"lng":-82.8985},{"id":"285279","name":"Tonya Funsch","email":"tonya.funsch@exprealty.com","email2":"tonyafunsch@gmail.com","phone":"(941) 301-0471","city":"Palmetto","state":"FL","zip":"34221","country":"US","status":"Active","level":"4","years":"0","influencer":"","lat":27.5429,"lng":-82.563},{"id":"285228","name":"Lynette Rogers","email":"lynette.rogers@exprealty.com","email2":"lynetterogersre@gmail.com","phone":"(281) 382-9797","city":"Tacoma","state":"WA","zip":"98405","country":"US","status":"Active","level":"4","years":"0","influencer":"","lat":47.2484,"lng":-122.4644},{"id":"285163","name":"Brittney Owens","email":"brittney.owens@exprealty.com","email2":"b_owens1990@yahoo.com","phone":"(352) 441-0277","city":"Dunnellon","state":"FL","zip":"34432","country":"US","status":"Active","level":"4","years":"0","influencer":"","lat":29.1015,"lng":-82.3413},{"id":"285135","name":"Ruby Adelle Bynum","email":"ruby.bynum@exprealty.com","email2":"ruby-bynum@hotmail.com","phone":"(509) 808-1955","city":"Newman Lake","state":"WA","zip":"99025","country":"US","status":"Active","level":"6","years":"0","influencer":"","lat":47.7274,"lng":-117.064},{"id":"285009","name":"Holly Thomas","email":"holly.thomas@exprealty.com","email2":"hollythomasrealty@gmail.com","phone":"(586) 944-6965","city":"Warren","state":"MI","zip":"48091","country":"US","status":"Active","level":"1","years":"0","influencer":"","lat":42.4665,"lng":-83.0593},{"id":"284998","name":"Shundra M Cannon","email":"shundra.cannon@exprealty.com","email2":"shundracannon@gmail.com","phone":"(832) 724-2260","city":"Pompano Beach","state":"FL","zip":"33062","country":"US","status":"Active","level":"1","years":"0","influencer":"","lat":26.2343,"lng":-80.0941},{"id":"284976","name":"Alison Ann Clayton","email":"alison.clayton@exprealty.com","email2":"ali@claytoncoaz.com","phone":"(480) 698-1357","city":"Mesa","state":"AZ","zip":"85212","country":"US","status":"Active","level":"2","years":"0","influencer":"","lat":33.3425,"lng":-111.6353},{"id":"284946","name":"Freshta Heydari","email":"freshta.heydari@exprealty.com","email2":"heydari.fera01@gmail.com","phone":"(949) 993-7766","city":"Ladera Ranch","state":"CA","zip":"92694","country":"US","status":"Active","level":"3","years":"0","influencer":"","lat":33.5472,"lng":-117.6238},{"id":"284934","name":"Jorge Alvarez Ramirez","email":"jorge.alvarezramirez@exprealty.com","email2":"34jorge34@gmail.com","phone":"(734) 795-0262","city":"Westland","state":"MI","zip":"48186","country":"US","status":"Active","level":"3","years":"0","influencer":"","lat":42.289,"lng":-83.3686},{"id":"284885","name":"Michaela Gonzales","email":"michaela.gonzales@exprealty.com","email2":"michaela.gonzales_88@outlook.com","phone":"(509) 439-7678","city":"Yakima","state":"WA","zip":"98902","country":"US","status":"Active","level":"6","years":"0","influencer":"","lat":46.5934,"lng":-120.5311},{"id":"284891","name":"Anaixa Morales","email":"anaixa.morales@exprealty.com","email2":"anaixa.morales@gmail.com","phone":"(813) 608-2127","city":"Wimauma","state":"FL","zip":"33598","country":"US","status":"Active","level":"3","years":"0","influencer":"","lat":27.7015,"lng":-82.3151},{"id":"284776","name":"Virginia Stokes","email":"virginia.stokes.284776@exprealty.com","email2":"virginiastokes01@gmail.com","phone":"(361) 633-3689","city":"Lansing","state":"MI","zip":"48912","country":"US","status":"Active","level":"2","years":"0","influencer":"","lat":42.7371,"lng":-84.5244},{"id":"284594","name":"Rocco Chilelli","email":"rocco.chilelli@exprealty.com","email2":"chilellirocco@gmail.com","phone":"(516) 316-3667","city":"Oceanside","state":"NY","zip":"11572","country":"US","status":"Active","level":"2","years":"0","influencer":"","lat":40.6362,"lng":-73.6375},{"id":"284468","name":"Janki Thakkar LLC","email":"janki.thakkar@exprealty.com","email2":"realtorjanki@gmail.com","phone":"(321) 368-9623","city":"Winter Park","state":"FL","zip":"32792","country":"US","status":"Active","level":"7","years":"0","influencer":"","lat":28.5974,"lng":-81.3036},{"id":"284436","name":"Tara McKinnon","email":"tara.mckinnon@exprealty.com","email2":"tmckinnon03@yahoo.com","phone":"(602) 399-9710","city":"Surprise","state":"AZ","zip":"85374","country":"US","status":"Active","level":"3","years":"0","influencer":"","lat":33.63,"lng":-112.3314},{"id":"284400","name":"Amy Singh","email":"amy.singh@exprealty.com","email2":"amysingh.ga@gmail.com","phone":"(415) 216-9919","city":"Lawrenceville","state":"GA","zip":"30043","country":"US","status":"Active","level":"3","years":"0","influencer":"","lat":34.0031,"lng":-84.0126},{"id":"284389","name":"Aleksandr Khanimov","email":"aleksandr.khanimov@exprealty.com","email2":"alex.premiumagent@gmail.com","phone":"(347) 395-7001","city":"Oviedo","state":"FL","zip":"32765","country":"US","status":"Active","level":"6","years":"0","influencer":"","lat":28.6513,"lng":-81.2066},{"id":"284410","name":"Amanda Christine Esparza","email":"amanda.esparza@exprealty.com","email2":"justsoldbyamanda@gmail.com","phone":"(805) 405-2899","city":"Lompoc","state":"CA","zip":"93436","country":"US","status":"Active","level":"3","years":"0","influencer":"","lat":34.6583,"lng":-120.4506},{"id":"284363","name":"Vanessa Suarez Faulk","email":"vanessa.faulk@exprealty.com","email2":"vanessa@vfaulkrealestate.com","phone":"(727) 742-2358","city":"Huntersville","state":"NC","zip":"28078","country":"US","status":"Active","level":"6","years":"0","influencer":"","lat":35.4011,"lng":-80.8695},{"id":"284330","name":"Kendra Harrington","email":"kendra.harrington@exprealty.com","email2":"kkharrington22@gmail.com","phone":"(253) 722-3139","city":"Bonney Lake","state":"WA","zip":"98391","country":"US","status":"Active","level":"4","years":"0","influencer":"","lat":47.143,"lng":-122.1644},{"id":"284247","name":"Rachel Ann Bolstad","email":"rachel.bolstad@exprealty.com","email2":"homesbyrachelbolstad@gmail.com","phone":"(425) 418-8690","city":"Snohomish","state":"WA","zip":"98290","country":"US","status":"Active","level":"7","years":"0","influencer":"","lat":47.8954,"lng":-122.0716},{"id":"284120","name":"Trisa Lynn Gray","email":"trisa.gray@expreferral.com","email2":"trisa.exprealty@gmail.com","phone":"(925) 493-1861","city":"Horseshoe Bend","state":"AR","zip":"72512","country":"US","status":"Active","level":"1","years":"0","influencer":"","lat":36.2025,"lng":-91.7553},{"id":"284058","name":"Heidi Mendez","email":"heidi.mendez@exprealty.com","email2":"heidimendezut@gmail.com","phone":"(425) 949-9628","city":"Clinton","state":"UT","zip":"84015","country":"US","status":"Active","level":"7","years":"0","influencer":"","lat":41.1294,"lng":-112.0482},{"id":"283784","name":"Ana Elisa Novaski Paro","email":"anaelisa.paro@exprealty.com","email2":"anaparorealtor@gmail.com","phone":"(919) 450-8926","city":"Hope Mills","state":"NC","zip":"28348","country":"US","status":"Active","level":"1","years":"0","influencer":"","lat":34.9536,"lng":-78.9354},{"id":"283732","name":"Laurie Rivera Robles","email":"laurie.riverarobles@exprealty.com","email2":"riverarobleshomes@gmail.com","phone":"(813) 766-3941","city":"Ruskin","state":"FL","zip":"33570","country":"US","status":"Active","level":"3","years":"0","influencer":"","lat":27.7015,"lng":-82.4355},{"id":"283596","name":"Kerry Mercier","email":"kerry.mercier@exprealty.com","email2":"kerrymercierrealestate@gmail.com","phone":"(352) 470-8369","city":"Candler","state":"FL","zip":"32111","country":"US","status":"Active","level":"4","years":"0","influencer":"","lat":29.0607,"lng":-81.969},{"id":"283438","name":"Megan J Herzer","email":"megan.herzer@exprealty.com","email2":"megan.herzer@gmail.com","phone":"(509) 288-0100","city":"Nine Mile Falls","state":"WA","zip":"99026","country":"US","status":"Active","level":"6","years":"0","influencer":"","lat":47.8019,"lng":-117.5894},{"id":"283440","name":"Chelsey Marie Wallace","email":"chelsey.wallace@exprealty.com","email2":"chelsey.wallace28@gmail.com","phone":"(720) 601-4226","city":"Lexington","state":"KY","zip":"40514","country":"US","status":"Active","level":"2","years":"0","influencer":"","lat":37.9833,"lng":-84.5767},{"id":"283427","name":"Erin Kahnis","email":"erin.kahnis@exprealty.com","email2":"tigerdesignrealty@gmail.com","phone":"(631) 708-4793","city":"Rocky Point","state":"NY","zip":"11778","country":"US","status":"Active","level":"2","years":"0","influencer":"","lat":40.9492,"lng":-72.9357},{"id":"283339","name":"Naomi Hernandez","email":"naomi.hernandez.co@exprealty.com","email2":"naomi.her3650@gmail.com","phone":"(970) 793-7799","city":"Greeley","state":"CO","zip":"80634","country":"US","status":"Active","level":"3","years":"0","influencer":"","lat":40.4109,"lng":-104.7541},{"id":"283234","name":"James Roy Worley Jr","email":"james.worley@exprealty.com","email2":"jrworley24@outlook.com","phone":"(919) 522-2348","city":"Princeton","state":"NC","zip":"27569","country":"US","status":"Active","level":"3","years":"0","influencer":"","lat":35.4558,"lng":-78.1674},{"id":"283210","name":"Annjanette Mack","email":"aj.mack@exprealty.com","email2":"ajmacksellshomes@gmail.com","phone":"(623) 332-0406","city":"Phoenix","state":"AZ","zip":"85022","country":"US","status":"Active","level":"3","years":"0","influencer":"","lat":33.6315,"lng":-112.052},{"id":"283090","name":"Lee Cozza","email":"lee.cozza@exprealty.com","email2":"lee_cozza@yahoo.com","phone":"(509) 599-4028","city":"Spokane","state":"WA","zip":"99223","country":"US","status":"Active","level":"5","years":"0","influencer":"","lat":47.6156,"lng":-117.3622},{"id":"283082","name":"Gagandeep Mallatt","email":"gagandeep.mallatt@exprealty.com","email2":"gigimallatt@gmail.com","phone":"(510) 364-8939","city":"Rocklin","state":"CA","zip":"95765","country":"US","status":"Active","level":"5","years":"0","influencer":"","lat":38.8136,"lng":-121.2677},{"id":"282921","name":"Austin Vaughn Woods","email":"austin.v.woods@exprealty.com","email2":"ozwood93@gmail.com","phone":"(509) 723-3868","city":"Newport","state":"WA","zip":"99156","country":"US","status":"Active","level":"7","years":"0","influencer":"","lat":48.1695,"lng":-117.1508},{"id":"282918","name":"Julie Dawn Herrmann","email":"julie.herrmann@exprealty.com","email2":"julieteamherrmann@gmail.com","phone":"(360) 900-7092","city":"Cheney","state":"WA","zip":"99004","country":"US","status":"Active","level":"7","years":"0","influencer":"","lat":47.4943,"lng":-117.5834},{"id":"282922","name":"Anthony Ray Anderson","email":"anthony.anderson@exprealty.com","email2":"anthonyrealtortn@gmail.com","phone":"(865) 298-2246","city":"Oak Ridge","state":"TN","zip":"37830","country":"US","status":"Active","level":"3","years":"0","influencer":"","lat":36.0159,"lng":-84.2623},{"id":"282890","name":"Rebecca Ann Fleming","email":"becky.fleming@exprealty.com","email2":"beckyflemingrealestate@gmail.com","phone":"(843) 263-6192","city":"Provo","state":"UT","zip":"84604","country":"US","status":"Active","level":"5","years":"0","influencer":"","lat":40.2607,"lng":-111.6549},{"id":"282912","name":"Kara Obrien","email":"kara.obrien@exprealty.com","email2":"thekaraobrien@gmail.com","phone":"(631) 664-6611","city":"Islip","state":"NY","zip":"11751","country":"US","status":"Active","level":"2","years":"0","influencer":"","lat":40.7348,"lng":-73.2221},{"id":"282860","name":"Daniel Gossett","email":"dan.gossett@exprealty.com","email2":"dan@dangossett.com","phone":"(916) 836-5326","city":"Orangevale","state":"CA","zip":"95662","country":"US","status":"Active","level":"4","years":"0","influencer":"","lat":38.6845,"lng":-121.2256},{"id":"282795","name":"Jillian Patricia Loudermilk","email":"jillian.loudermilk@exprealty.com","email2":"loudermilkjillian@gmail.com","phone":"(941) 705-7640","city":"Bradenton","state":"FL","zip":"34209","country":"US","status":"Active","level":"5","years":"0","influencer":"","lat":27.4759,"lng":-82.6167},{"id":"282769","name":"Ashley Nicole Hite","email":"ashley.hite@exprealty.com","email2":"ashley@uplitmarketing.com","phone":"(360) 990-0009","city":"Nine Mile Falls","state":"WA","zip":"99026","country":"US","status":"Active","level":"5","years":"0","influencer":"","lat":47.8019,"lng":-117.5894},{"id":"282741","name":"Michelle Smith","email":"michelle.y.smith@exprealty.com","email2":"michellesellswithexit@gmail.com","phone":"(630) 433-6744","city":"Woodridge","state":"IL","zip":"60517","country":"US","status":"Active","level":"4","years":"0","influencer":"","lat":41.7518,"lng":-88.0488},{"id":"282625","name":"Viridiana Guadalupe Mejia Aguilar","email":"viridianaguadalupe.mejiaaguilar@exprealty.com","email2":"vglowup94@gmail.com","phone":"(916) 513-0851","city":"Elk Grove","state":"CA","zip":"95758","country":"US","status":"Active","level":"4","years":"0","influencer":"","lat":38.4243,"lng":-121.437},{"id":"282480","name":"Quentin Lee Amundson","email":"quentin.amundson@exprealty.com","email2":"q@wereinspired.com","phone":"(808) 756-4060","city":"Winter Park","state":"FL","zip":"32789","country":"US","status":"Active","level":"4","years":"0","influencer":"","lat":28.5978,"lng":-81.3534},{"id":"282439","name":"Jennifer Nyx","email":"jennifer.nyx@exprealty.com","email2":"jennifernyxrealtor@gmail.com","phone":"(631) 813-6100","city":"Port Jefferson Station","state":"NY","zip":"11776","country":"US","status":"Active","level":"1","years":"0","influencer":"Builders","lat":40.9136,"lng":-73.0464},{"id":"282388","name":"Cayla Jordan Verrett","email":"cayla.verrett@exprealty.com","email2":"creamysbycaylajordan@gmail.com","phone":"(916) 501-3845","city":"El Dorado Hills","state":"CA","zip":"95762","country":"US","status":"Active","level":"5","years":"0","influencer":"","lat":38.685,"lng":-121.068},{"id":"282316","name":"Chad Owen Jett","email":"chad.jett@exprealty.com","email2":"cojett@live.com","phone":"(765) 346-4466","city":"Paducah","state":"KY","zip":"42001","country":"US","status":"Active","level":"4","years":"0","influencer":"","lat":37.0634,"lng":-88.6632},{"id":"282222","name":"Savanna Christine Amundson","email":"savanna.amundson@exprealty.com","email2":"chrissy@wereinspired.com","phone":"(305) 521-8874","city":"Winter Park","state":"FL","zip":"32789","country":"US","status":"Active","level":"3","years":"0","influencer":"","lat":28.5978,"lng":-81.3534},{"id":"282287","name":"Nicholas Joseph Nolan","email":"nicholas.nolan@exprealty.com","email2":"nicknolanrealtor@gmail.com","phone":"(818) 618-6211","city":"Paso Robles","state":"CA","zip":"93446","country":"US","status":"Active","level":"4","years":"0","influencer":"","lat":35.6406,"lng":-120.7003},{"id":"282202","name":"Austin James Rankin","email":"austin.rankin@exprealty.com","email2":"austin@austinrankin.com","phone":"(727) 242-3357","city":"Clearwater","state":"FL","zip":"33756","country":"US","status":"Active","level":"2","years":"0","influencer":"","lat":27.947,"lng":-82.7943},{"id":"282182","name":"Haley Powell Smallwood","email":"haley.smallwood@exprealty.com","email2":"hpsmallwood@gmail.com","phone":"(706) 244-9792","city":"Appling","state":"GA","zip":"30802","country":"US","status":"Active","level":"6","years":"0","influencer":"","lat":33.6271,"lng":-82.2856},{"id":"282148","name":"Jonathan Mark Thomas","email":"jonathan.m.thomas@exprealty.com","email2":"jt@jonathanthomashomes.com","phone":"(720) 990-7029","city":"Golden","state":"CO","zip":"80403","country":"US","status":"Active","level":"3","years":"0","influencer":"","lat":39.8232,"lng":-105.2825},{"id":"282072","name":"Barbara Ann Morrocco","email":"barbara.morrocco@exprealty.com","email2":"barbara@morrocco.com","phone":"(443) 472-3146","city":"Saint Petersburg","state":"FL","zip":"33701","country":"US","status":"Active","level":"2","years":"0","influencer":"","lat":27.7723,"lng":-82.6386},{"id":"282006","name":"Rien Noelle Torres","email":"rien.torres@exprealty.com","email2":"rient7@icloud.com","phone":"(530) 906-5565","city":"Auburn","state":"CA","zip":"95602","country":"US","status":"Active","level":"3","years":"0","influencer":"","lat":38.9829,"lng":-121.0944},{"id":"281989","name":"Marco Moises Tuaty","email":"marco.tuaty@exprealty.com","email2":"marco@marcotuaty.com","phone":"(305) 904-9789","city":"Orlando","state":"FL","zip":"32801","country":"US","status":"Active","level":"7","years":"0","influencer":"","lat":28.5399,"lng":-81.3727},{"id":"281899","name":"Dawn Kristi Royals","email":"dawn.royals@exprealty.com","email2":"royalsdawn@gmail.com","phone":"(352) 537-9588","city":"belleview","state":"FL","zip":"34420","country":"US","status":"Active","level":"4","years":"0","influencer":"","lat":29.0531,"lng":-82.0375},{"id":"281860","name":"Ariadna Mendoza Plascencia LLC","email":"ari.mendoza@exprealty.com","email2":"ariadnalmp@gmail.com","phone":"(727) 723-4837","city":"Saint Petersburg","state":"FL","zip":"33713","country":"US","status":"Active","level":"3","years":"0","influencer":"","lat":27.789,"lng":-82.6779},{"id":"281839","name":"Catalina Munoz","email":"catalina.munoz@exprealty.com","email2":"25catalinam@gmail.com","phone":"(530) 848-9439","city":"Woodland","state":"CA","zip":"95776","country":"US","status":"Active","level":"4","years":"0","influencer":"","lat":38.6808,"lng":-121.7411},{"id":"281751","name":"Lori Ann Ortiz","email":"lori.ortiz@exprealty.com","email2":"moveswithlori@gmail.com","phone":"(616) 915-5115","city":"Ypsilanti","state":"MI","zip":"48197","country":"US","status":"Active","level":"3","years":"0","influencer":"","lat":42.2325,"lng":-83.6336},{"id":"281312","name":"Susan A Thomas","email":"susan.thomas@exprealty.com","email2":"winningizahabit@gmail.com","phone":"(754) 368-1644","city":"Naples","state":"FL","zip":"34120","country":"US","status":"Active","level":"1","years":"0","influencer":"","lat":26.3304,"lng":-81.5871},{"id":"281560","name":"Raushanah S Keys","email":"raushanah.keys@exprealty.com","email2":"shanah@jhgcincy.com","phone":"(513) 616-1497","city":"Cleves","state":"OH","zip":"45002","country":"US","status":"Active","level":"3","years":"0","influencer":"","lat":39.1937,"lng":-84.734},{"id":"281306","name":"Linda Marin","email":"linda.marin@exprealty.com","email2":"linda.marin8@gmail.com","phone":"(361) 429-2520","city":"Corpus Christi","state":"TX","zip":"78411","country":"US","status":"Active","level":"3","years":"0","influencer":"","lat":27.7311,"lng":-97.3877},{"id":"281326","name":"Justin Michael Roberts","email":"justin.roberts@exprealty.com","email2":"justinroberts760@gmail.com","phone":"(760) 218-7715","city":"Indio","state":"CA","zip":"92201","country":"US","status":"Active","level":"7","years":"0","influencer":"","lat":33.7287,"lng":-116.0357},{"id":"281297","name":"Holly M Reed","email":"holly.m.reed@exprealty.com","email2":"rightsizewithholly@gmail.com","phone":"(971) 678-3549","city":"Airway Heights","state":"WA","zip":"99001","country":"US","status":"Active","level":"2","years":"0","influencer":"","lat":47.6438,"lng":-117.592},{"id":"281196","name":"Linsey Durham","email":"linsey.durham@exprealty.com","email2":"therealdeal98466@gmail.com","phone":"(253) 279-1316","city":"University Place","state":"WA","zip":"98466","country":"US","status":"Active","level":"4","years":"0","influencer":"","lat":47.228,"lng":-122.5396},{"id":"281155","name":"Katie E Owens","email":"katie.owens.tn@exprealty.com","email2":"katiesells423@gmail.com","phone":"(865) 919-7547","city":"Jonesborough","state":"TN","zip":"37659","country":"US","status":"Active","level":"5","years":"0","influencer":"","lat":36.2954,"lng":-82.4902},{"id":"281095","name":"Claudia Cristina Fuentes","email":"claudia.fuentes@expcommercial.com","email2":"claudiaf.realestate@gmail.com","phone":"(281) 686-2697","city":"Cypress","state":"TX","zip":"77433","country":"US","status":"Active","level":"1","years":"0","influencer":"","lat":29.8836,"lng":-95.7025},{"id":"280976","name":"Solize Smit Van Der Merwe","email":"solize.smitvandermerwe@exprealty.com","email2":"n600cm@aol.com","phone":"(509) 697-3252","city":"Traverse City","state":"MI","zip":"49686","country":"US","status":"Active","level":"2","years":"0","influencer":"","lat":44.7849,"lng":-85.4907},{"id":"280891","name":"Amanda Metcalf","email":"amanda.metcalf.280891@exprealty.com","email2":"amandametcalf.realtor@gmail.com","phone":"(321) 978-8402","city":"Windermere","state":"FL","zip":"34786","country":"US","status":"Active","level":"6","years":"0","influencer":"","lat":28.5006,"lng":-81.5354},{"id":"280882","name":"Luz Estrella Colon PA","email":"luzestrella.colon@exprealty.com","email2":"luzaroundthebay@gmail.com","phone":"(813) 846-6379","city":"Brandon","state":"FL","zip":"33511","country":"US","status":"Active","level":"2","years":"0","influencer":"","lat":27.9056,"lng":-82.2881},{"id":"280787","name":"Anna Sophia Young","email":"anna.young@exprealty.com","email2":"anna@trulivingroup.com","phone":"(810) 626-8797","city":"Howell","state":"MI","zip":"48843","country":"US","status":"Active","level":"3","years":"0","influencer":"","lat":42.6159,"lng":-83.9248},{"id":"280672","name":"Maria Adriana Hernandez-Garcia","email":"maria.hernandez-garcia@exprealty.com","email2":"mariahg34146@gmail.com","phone":"(313) 399-3923","city":"Allen Park","state":"MI","zip":"48101","country":"US","status":"Active","level":"3","years":"0","influencer":"","lat":42.2522,"lng":-83.212},{"id":"280466","name":"Tim Angevine","email":"tim.angevine@exprealty.com","email2":"tim@mcinturffandco.com","phone":"(253) 878-2662","city":"Spokane","state":"WA","zip":"99208","country":"US","status":"Active","level":"5","years":"0","influencer":"","lat":47.7374,"lng":-117.4352},{"id":"280474","name":"Pedro Quiroz Jr","email":"pedro.quiroz@exprealty.com","email2":"pedroqrealtor@gmail.com","phone":"(313) 492-9037","city":"Taylor","state":"MI","zip":"48180","country":"US","status":"Active","level":"2","years":"0","influencer":"","lat":42.2317,"lng":-83.2673},{"id":"280386","name":"Elizabeth Ann Fischer","email":"elizabeth.fischer@exprealty.com","email2":"lizfischer012@gmail.com","phone":"(943) 270-4509","city":"Lawrenceville","state":"GA","zip":"30045","country":"US","status":"Active","level":"3","years":"0","influencer":"","lat":33.9367,"lng":-83.9573},{"id":"280348","name":"Aries Escobar","email":"aries.escobar@exprealty.com","email2":"ariesescobar91@live.com","phone":"(734) 262-6383","city":"Romulus","state":"MI","zip":"48174","country":"US","status":"Active","level":"4","years":"0","influencer":"","lat":42.2203,"lng":-83.3583},{"id":"280163","name":"Frank David Miller","email":"frank.miller@exprealty.com","email2":"millerf228@gmail.com","phone":"(313) 721-8621","city":"Detroit","state":"MI","zip":"48226","country":"US","status":"Active","level":"2","years":"0","influencer":"","lat":42.3333,"lng":-83.0484},{"id":"280067","name":"Krista Leonard","email":"krista.leonard@exprealty.com","email2":"leonard.krista43@gmail.com","phone":"(509) 939-5771","city":"Spokane","state":"WA","zip":"99212","country":"US","status":"Active","level":"4","years":"0","influencer":"","lat":47.6686,"lng":-117.3049},{"id":"280001","name":"Stephen Denny","email":"stephen.denny@exprealty.com","email2":"sdenny.cfl@gmail.com","phone":"(321) 276-6126","city":"Orlando","state":"FL","zip":"32804","country":"US","status":"Active","level":"4","years":"0","influencer":"","lat":28.5754,"lng":-81.3955},{"id":"279914","name":"Anne Hall","email":"anne.hall@exprealty.com","email2":"annehallrealestate@gmail.com","phone":"(503) 957-6218","city":"Portland","state":"OR","zip":"97216","country":"US","status":"Active","level":"4","years":"0","influencer":"","lat":45.5137,"lng":-122.5569},{"id":"279851","name":"Stephanie Powers","email":"stephanie.powers@exprealty.com","email2":"sapowers02@gmail.com","phone":"(509) 863-3454","city":"Liberty Lake","state":"WA","zip":"99019","country":"US","status":"Active","level":"7","years":"0","influencer":"","lat":47.6517,"lng":-117.0838},{"id":"279790","name":"Octavia Denise Scott","email":"octavia.scott@expreferral.com","email2":"octaviadenises@gmail.com","phone":"(940) 205-9507","city":"Denton","state":"TX","zip":"76209","country":"US","status":"Active","level":"5","years":"0","influencer":"","lat":33.2346,"lng":-97.1131},{"id":"279766","name":"Sarah Elizabeth Kaetterhenry","email":"sarah.kaetterhenry@exprealty.com","email2":"sarah.legacygroup@gmail.com","phone":"(920) 569-9560","city":"Plover","state":"WI","zip":"54467","country":"US","status":"Active","level":"5","years":"0","influencer":"","lat":44.4507,"lng":-89.5428},{"id":"279769","name":"Phaula Koriny Scott","email":"phaula.scott@exprealty.com","email2":"phaula.scott@icloud.com","phone":"(602) 616-2118","city":"Surprise","state":"AZ","zip":"85388","country":"US","status":"Active","level":"2","years":"0","influencer":"","lat":33.6134,"lng":-112.4512},{"id":"279677","name":"Logan S Sharkey","email":"logan.sharkey@exprealty.com","email2":"logan@amymaynardgroup.com","phone":"(903) 450-6011","city":"Rockwall","state":"TX","zip":"75087","country":"US","status":"Active","level":"7","years":"0","influencer":"","lat":32.9492,"lng":-96.4418},{"id":"279610","name":"Courtney Thonsgaard Prenzler","email":"courtney.prenzler@exprealty.com","email2":"courtneyprenzler.realtor@gmail.com","phone":"(979) 637-0331","city":"Burton","state":"TX","zip":"77835","country":"US","status":"Active","level":"7","years":"0","influencer":"","lat":30.1767,"lng":-96.5925},{"id":"279577","name":"Kari Higginbotham","email":"kari.higginbotham@exprealty.com","email2":"karihigginbotham3@gmail.com","phone":"(208) 661-9689","city":"Boise","state":"ID","zip":"83714","country":"US","status":"Active","level":"5","years":"0","influencer":"","lat":43.7318,"lng":-116.2797},{"id":"279545","name":"Olga Halkina","email":"olga.halkina@exprealty.com","email2":"olgasellshomes1@gmail.com","phone":"(720) 467-0990","city":"Greenwood Village","state":"CO","zip":"80111","country":"US","status":"Active","level":"4","years":"0","influencer":"","lat":39.6123,"lng":-104.8799},{"id":"279547","name":"Dillan Raymond Juul","email":"dillan.juul@exprealty.com","email2":"dillanjuul@gmail.com","phone":"(571) 335-9937","city":"Spring","state":"TX","zip":"77389","country":"US","status":"Active","level":"4","years":"0","influencer":"","lat":30.1044,"lng":-95.5066},{"id":"279539","name":"Britt Gustafson","email":"britt.gustafson@exprealty.com","email2":"britt.gustafson@me.com","phone":"(310) 880-4899","city":"Palm Beach Gardens","state":"FL","zip":"33410","country":"US","status":"Active","level":"3","years":"0","influencer":"","lat":26.8467,"lng":-80.088},{"id":"279512","name":"Joel M McClellan","email":"joel.mcclellan@exprealty.com","email2":"jmcclellan1513@gmail.com","phone":"(352) 356-3469","city":"Trenton","state":"FL","zip":"32693","country":"US","status":"Active","level":"4","years":"0","influencer":"","lat":29.6746,"lng":-82.8117},{"id":"279489","name":"Amanda Harper","email":"amanda.harper@expreferral.com","email2":"mplusw9.17@gmail.com","phone":"(314) 315-5641","city":"Saint Louis","state":"MO","zip":"63122","country":"US","status":"Active","level":"7","years":"0","influencer":"","lat":38.5781,"lng":-90.4256},{"id":"279469","name":"Jonah Lucas Martin","email":"jonah.martin@expreferral.com","email2":"jonahmaraqua@hotmail.com","phone":"(407) 758-6775","city":"Orlando","state":"FL","zip":"32804","country":"US","status":"Active","level":"3","years":"0","influencer":"","lat":28.5754,"lng":-81.3955},{"id":"279427","name":"Dalvir Kaur","email":"dalvir.kaur@exprealty.com","email2":"dalvirkrealtor@gmail.com","phone":"(916) 505-2705","city":"Rancho Cordova","state":"CA","zip":"95742","country":"US","status":"Active","level":"4","years":"0","influencer":"","lat":38.5981,"lng":-121.2153},{"id":"279337","name":"Amy Elizabeth Maynard","email":"amy.maynard@exprealty.com","email2":"amy@amymaynardgroup.com","phone":"(214) 517-6622","city":"Rockwall","state":"TX","zip":"75087","country":"US","status":"Active","level":"6","years":"0","influencer":"Builders","lat":32.9492,"lng":-96.4418},{"id":"279305","name":"Amanda Lauren Brandt","email":"amanda.l.brandt@exprealty.com","email2":"amandabrandthomes@gmail.com","phone":"(636) 248-5646","city":"Chesterfield","state":"MO","zip":"63017","country":"US","status":"Active","level":"7","years":"0","influencer":"","lat":38.6491,"lng":-90.5358},{"id":"279306","name":"Breanna Kofron","email":"breanna.kofron@exprealty.com","email2":"breanna.kofron137@gmail.com","phone":"(270) 709-4830","city":"Paducah","state":"KY","zip":"42001","country":"US","status":"Active","level":"5","years":"0","influencer":"","lat":37.0634,"lng":-88.6632},{"id":"279240","name":"Daniel Guy Evans II","email":"daniel.evans@exprealty.com","email2":"devans6504@gmail.com","phone":"(205) 401-7102","city":"Birmingham","state":"AL","zip":"35226","country":"US","status":"Active","level":"5","years":"0","influencer":"","lat":33.3967,"lng":-86.8346},{"id":"279205","name":"Danielle Willis","email":"danielle.willis@exprealty.com","email2":"danielle.exprealty@gmail.com","phone":"(516) 494-9900","city":"Glen Cove","state":"NY","zip":"11542","country":"US","status":"Active","level":"2","years":"0","influencer":"","lat":40.865,"lng":-73.6277},{"id":"279171","name":"Craig Charles Monson","email":"craig.monson@exprealty.com","email2":"preciseappraisals@msn.com","phone":"(480) 799-2655","city":"Mesa","state":"AZ","zip":"85209","country":"US","status":"Active","level":"5","years":"0","influencer":"","lat":33.3782,"lng":-111.6406},{"id":"279133","name":"Tamia Tripp","email":"tamia.tripp@exprealty.com","email2":"tamia.ruffin_tripp@yahoo.com","phone":"(410) 598-9141","city":"Plantation","state":"FL","zip":"33325","country":"US","status":"Active","level":"3","years":"0","influencer":"","lat":26.1097,"lng":-80.3215},{"id":"279030","name":"Katharyn Sallee Johnson","email":"katharyn.johnson@exprealty.com","email2":"kat@katjohnsonrealtor.com","phone":"(314) 258-5288","city":"Imperial","state":"MO","zip":"63052","country":"US","status":"Active","level":"7","years":"0","influencer":"","lat":38.4069,"lng":-90.4381},{"id":"279018","name":"Kaitlynn Pineau","email":"kaitlynn.pineau@exprealty.com","email2":"kaitlynnpineaurealtor@gmail.com","phone":"(916) 204-0930","city":"Lincoln","state":"CA","zip":"95648","country":"US","status":"Active","level":"6","years":"0","influencer":"","lat":38.8942,"lng":-121.2908},{"id":"279014","name":"Liza Adele Fox","email":"liza.fox@exprealty.com","email2":"lizafoxrealtor@gmail.com","phone":"(253) 381-4790","city":"Tacoma","state":"WA","zip":"98445","country":"US","status":"Active","level":"7","years":"0","influencer":"","lat":47.1291,"lng":-122.4094},{"id":"278998","name":"Lauren Ashley Gentry","email":"ashley.gentry@exprealty.com","email2":"agentryrealtor1@gmail.com","phone":"(270) 331-5654","city":"Paducah","state":"KY","zip":"42003","country":"US","status":"Active","level":"4","years":"0","influencer":"","lat":37.0368,"lng":-88.5934},{"id":"278902","name":"Jessica Jean Louise Hechler","email":"jessica.hechler@exprealty.com","email2":"jessicajlhechler@gmail.com","phone":"(517) 317-7579","city":"Battle Creek","state":"MI","zip":"49017","country":"US","status":"Active","level":"1","years":"0","influencer":"","lat":42.3322,"lng":-85.1811},{"id":"278866","name":"Mia Raine Weiland","email":"mia.weiland@exprealty.com","email2":"miaidhomes@gmail.com","phone":"(208) 203-1568","city":"Nampa","state":"ID","zip":"83687","country":"US","status":"Active","level":"6","years":"0","influencer":"","lat":43.5937,"lng":-116.536},{"id":"278811","name":"Vickie L Cortes","email":"vickie.cortes@exprealty.com","email2":"vickie@vickiesunshine.com","phone":"(239) 633-2700","city":"Bonita Springs","state":"FL","zip":"34135","country":"US","status":"Active","level":"3","years":"0","influencer":"","lat":26.3771,"lng":-81.7334},{"id":"278805","name":"Rachel Jean Hall","email":"rachel.j.hall@exprealty.com","email2":"rachelhallrealestate@gmail.com","phone":"(916) 716-6708","city":"Folsom","state":"CA","zip":"95630","country":"US","status":"Active","level":"5","years":"0","influencer":"","lat":38.6709,"lng":-121.1529},{"id":"278755","name":"Benecia Renae Lee","email":"benecia.lee@exprealty.com","email2":"beneciarenae@yahoo.com","phone":"(916) 397-6225","city":"Cameron Park","state":"CA","zip":"95682","country":"US","status":"Active","level":"5","years":"0","influencer":"","lat":38.6465,"lng":-120.9641},{"id":"278612","name":"Michelle Bordin Crochet","email":"michelle.crochet@exprealty.com","email2":"mc@magnoliagroupla.com","phone":"(818) 688-2062","city":"Burbank","state":"CA","zip":"91506","country":"US","status":"Active","level":"5","years":"0","influencer":"","lat":34.1717,"lng":-118.3231},{"id":"278476","name":"Daphne LaShelle Harrison-Polk","email":"daphne.harrison-polk@expreferral.com","email2":"ahjmom61710@outlook.com","phone":"(214) 763-6872","city":"Odessa","state":"TX","zip":"79762","country":"US","status":"Active","level":"5","years":"0","influencer":"","lat":31.889,"lng":-102.3548},{"id":"278152","name":"Ravi Ramachandran","email":"ravi.ramachandran@exprealty.com","email2":"ravi@theramsgroup.com","phone":"(425) 753-4670","city":"Redmond","state":"WA","zip":"98052","country":"US","status":"Active","level":"1","years":"0","influencer":"","lat":47.6718,"lng":-122.1232},{"id":"278355","name":"Aaliyah Titiana Marie Cage","email":"aaliyah.cage@exprealty.com","email2":"aaliyahcage@yahoo.com","phone":"(951) 419-8798","city":"Victorville","state":"CA","zip":"92392","country":"US","status":"Active","level":"2","years":"0","influencer":"","lat":34.4802,"lng":-117.4082},{"id":"278300","name":"Jaedin Eugene Glenn","email":"jaedin.glenn@exprealty.com","email2":"jaedin28@gmail.com","phone":"(734) 772-7728","city":"Garden City","state":"MI","zip":"48135","country":"US","status":"Active","level":"6","years":"0","influencer":"","lat":42.3242,"lng":-83.3402},{"id":"278203","name":"June Kazalia","email":"june.kazalia@exprealty.com","email2":"kazaliajune2023@gmail.com","phone":"3108539361","city":"Brighton","state":"MI","zip":"48116","country":"US","status":"Active","level":"4","years":"0","influencer":"","lat":42.5371,"lng":-83.7756},{"id":"276351","name":"Erin Ashley Lewis","email":"erin.lewis@exprealty.com","email2":"ashley@lindseyknight.com","phone":"(214) 336-3200","city":"Frisco","state":"TX","zip":"75034","country":"US","status":"Active","level":"6","years":"0","influencer":"","lat":33.1499,"lng":-96.8241},{"id":"276307","name":"Joseph Stumpo","email":"joseph.stumpo@exprealty.com","email2":"jvstumpo88@gmail.com","phone":"(718) 697-9877","city":"Staten Island","state":"NY","zip":"10309","country":"US","status":"Active","level":"3","years":"0","influencer":"","lat":40.5352,"lng":-74.2116},{"id":"276278","name":"Makayla Jade Giles","email":"makayla.giles@exprealty.com","email2":"makayla@lopezrealtyteam.com","phone":"(586) 447-2692","city":"Macomb","state":"MI","zip":"48044","country":"US","status":"Active","level":"4","years":"0","influencer":"","lat":42.6442,"lng":-82.8985},{"id":"276148","name":"Amanda Rae Thompson","email":"amanda.r.thompson@exprealty.com","email2":"amanda@thompsonhomesnw.com","phone":"(425) 903-1775","city":"Lake Stevens","state":"WA","zip":"98258","country":"US","status":"Active","level":"7","years":"0","influencer":"","lat":48.0171,"lng":-122.0672},{"id":"275885","name":"Cassidy Linn Huber","email":"cassidy.huber@exprealty.com","email2":"homesweethuber@gmail.com","phone":"(309) 737-3659","city":"East Moline","state":"IL","zip":"61244","country":"US","status":"Active","level":"1","years":"0","influencer":"","lat":41.5118,"lng":-90.4321},{"id":"275795","name":"Kristin Marie Villa","email":"kristin.villa@exprealty.com","email2":"kristinmarievilla@gmail.com","phone":"(843) 810-8849","city":"Awendaw","state":"SC","zip":"29429","country":"US","status":"Active","level":"4","years":"0","influencer":"","lat":33.0063,"lng":-79.6561},{"id":"275710","name":"Adrienne Brown","email":"adrienne.brown@exprealty.com","email2":"adriennebsellshomes@gmail.com","phone":"(407) 928-8006","city":"Loveland","state":"OH","zip":"45140","country":"US","status":"Active","level":"3","years":"0","influencer":"","lat":39.2445,"lng":-84.2588},{"id":"275697","name":"Jennifer Prestwich","email":"jennifer.prestwich@exprealty.com","email2":"jenniferprestwich@gmail.com","phone":"(720) 341-5235","city":"Westminster","state":"CO","zip":"80031","country":"US","status":"Active","level":"3","years":"0","influencer":"","lat":39.8753,"lng":-105.0345},{"id":"275702","name":"Ashley Louise Cena","email":"ashley.cena@exprealty.com","email2":"ashleycenarealtor@gmail.com","phone":"(619) 948-2551","city":"Chula Vista","state":"CA","zip":"91915","country":"US","status":"Active","level":"3","years":"0","influencer":"","lat":32.6315,"lng":-116.9408},{"id":"275678","name":"Gennifer Pickering","email":"gennifer.pickering@expreferral.com","email2":"genn@thewestcollection.com","phone":"689-278-6420","city":"Sanford","state":"FL","zip":"32771","country":"US","status":"Active","level":"3","years":"0","influencer":"","lat":28.8013,"lng":-81.285},{"id":"275679","name":"Amaryllis Phillips","email":"amaryllis.phillips@exprealty.com","email2":"amaryllisphillips.realty@gmail.com","phone":"(704) 794-5451","city":"Monroe","state":"NC","zip":"28110","country":"US","status":"Active","level":"4","years":"0","influencer":"","lat":35.0178,"lng":-80.5372},{"id":"275632","name":"Cheryl Sparks","email":"cheryl.sparks@exprealty.com","email2":"soldwithcheryl@gmail.com","phone":"(530) 863-7972","city":"Roseville","state":"CA","zip":"95747","country":"US","status":"Active","level":"4","years":"0","influencer":"","lat":38.7703,"lng":-121.3372},{"id":"275630","name":"Angela Counts","email":"angela.counts@exprealty.com","email2":"angie@angiecountsrealtor.com","phone":"(916) 719-4801","city":"Colfax","state":"CA","zip":"95713","country":"US","status":"Active","level":"5","years":"0","influencer":"","lat":39.0783,"lng":-120.9549},{"id":"275540","name":"Erika Marie Forrester","email":"erika.forrester@exprealty.com","email2":"eforrester1018@gmail.com","phone":"(859) 816-1417","city":"Florence","state":"KY","zip":"41042","country":"US","status":"Active","level":"3","years":"0","influencer":"","lat":38.9941,"lng":-84.642},{"id":"275545","name":"Sara Patrice Hamilton","email":"sara.hamilton@exprealty.com","email2":"lawgirl0425@yahoo.com","phone":"(253) 307-5921","city":"Puyallup","state":"WA","zip":"98373","country":"US","status":"Active","level":"6","years":"0","influencer":"","lat":47.1284,"lng":-122.3219},{"id":"275514","name":"Harley Rose Bower","email":"harley.bower@exprealty.com","email2":"harley@lindseyknight.com","phone":"(469) 662-2886","city":"Gunter","state":"TX","zip":"75058","country":"US","status":"Active","level":"6","years":"0","influencer":"","lat":33.4495,"lng":-96.7341},{"id":"275502","name":"Lindsey Rhea Knight","email":"lindsey.knight@exprealty.com","email2":"lindsey@lindseyknight.com","phone":"(214) 683-5024","city":"Mckinney","state":"TX","zip":"75071","country":"US","status":"Active","level":"5","years":"0","influencer":"Builders","lat":33.2141,"lng":-96.7533},{"id":"275352","name":"Austin Goss","email":"austin.goss@exprealty.com","email2":"austin.goss@pinnaclepartnersteam.com","phone":"(360) 464-7879","city":"Dupont","state":"WA","zip":"98327","country":"US","status":"Active","level":"4","years":"0","influencer":"","lat":47.0909,"lng":-122.6567},{"id":"275296","name":"Bronda Renee Bowery","email":"bronda.bowery@exprealty.com","email2":"threeforksrealestate@gmail.com","phone":"(406) 214-2886","city":"Three Forks","state":"MT","zip":"59752","country":"US","status":"Active","level":"2","years":"0","influencer":"","lat":45.8811,"lng":-111.5436},{"id":"275262","name":"Leia Bianca Baraza","email":"leia.baraza@exprealty.com","email2":"momentuminspires@gmail.com","phone":"(916) 879-4435","city":"Elk Grove","state":"CA","zip":"95758","country":"US","status":"Active","level":"5","years":"0","influencer":"","lat":38.4243,"lng":-121.437},{"id":"275223","name":"Meagan Smedley","email":"meagan.smedley@exprealty.com","email2":"mpsmedley@gmail.com","phone":"(808) 228-5884","city":"Pace","state":"FL","zip":"32571","country":"US","status":"Active","level":"4","years":"0","influencer":"","lat":30.6698,"lng":-87.1794},{"id":"275157","name":"James Christopher Bright","email":"james.bright@exprealty.com","email2":"cbright50@comcast.net","phone":"(270) 519-3293","city":"Paducah","state":"KY","zip":"42003","country":"US","status":"Active","level":"4","years":"0","influencer":"","lat":37.0368,"lng":-88.5934},{"id":"275017","name":"Craig Mosier","email":"craig.mosier@exprealty.com","email2":"craig.mosier29@gmail.com","phone":"(270) 590-1017","city":"Glasgow","state":"KY","zip":"42141","country":"US","status":"Active","level":"4","years":"0","influencer":"","lat":36.9882,"lng":-85.9221},{"id":"275012","name":"Alvaro Manuel Alvarenga","email":"alvaro.alvarenga@exprealty.com","email2":"amalvaren@gmail.com","phone":"(510) 706-2678","city":"Sacramento","state":"CA","zip":"95826","country":"US","status":"Active","level":"5","years":"0","influencer":"","lat":38.5539,"lng":-121.3693},{"id":"274955","name":"Julia Penderman","email":"julia.penderman@exprealty.com","email2":"juliapenderman.realtor@gmail.com","phone":"(919) 813-9233","city":"Fayetteville","state":"NC","zip":"28314","country":"US","status":"Active","level":"3","years":"0","influencer":"","lat":35.0583,"lng":-79.008},{"id":"274922","name":"Thomas Joseph Garvey","email":"thomas.garvey@exprealty.com","email2":"thomasjgarvey@outlook.com","phone":"(815) 587-5609","city":"Somonauk","state":"IL","zip":"60552","country":"US","status":"Active","level":"3","years":"0","influencer":"","lat":41.6383,"lng":-88.6816},{"id":"274796","name":"Keri Gassaway","email":"keri.gassaway@exprealty.com","email2":"livewellbykeri@gmail.com","phone":"(512) 799-6817","city":"Austin","state":"TX","zip":"78738","country":"US","status":"Active","level":"5","years":"0","influencer":"","lat":30.3337,"lng":-97.9824},{"id":"274785","name":"Margaret Ann Moxley","email":"maggie.moxley@exprealty.com","email2":"Maggie@SummitandStone.org","phone":"(303) 717-2501","city":"Golden","state":"CO","zip":"80401","country":"US","status":"Active","level":"3","years":"0","influencer":"","lat":39.7305,"lng":-105.1915},{"id":"274775","name":"Maria Oblad","email":"maria.oblad@exprealty.com","email2":"moblad387@gmail.com","phone":"(801) 557-3354","city":"Taylorsville","state":"UT","zip":"84123","country":"US","status":"Active","level":"3","years":"0","influencer":"","lat":40.6596,"lng":-111.9193},{"id":"274700","name":"Rachel Strong","email":"rachel.strong@exprealty.com","email2":"rachelstrongrealty@gmail.com","phone":"(503) 545-4872","city":"Bend","state":"OR","zip":"97702","country":"US","status":"Active","level":"6","years":"0","influencer":"","lat":44.0223,"lng":-121.2985},{"id":"274576","name":"Ellena Stevi Nicholas","email":"ellena.nicholas@exprealty.com","email2":"e.nicholashomes@gmail.com","phone":"(360) 547-2341","city":"Rathdrum","state":"ID","zip":"83858","country":"US","status":"Active","level":"7","years":"0","influencer":"","lat":47.8241,"lng":-116.8873},{"id":"274618","name":"Rochelle Ramos","email":"rochelle.ramos@exprealty.com","email2":"rochelle0123@yahoo.com","phone":"(360) 907-5366","city":"South Jordan","state":"UT","zip":"84095","country":"US","status":"Active","level":"3","years":"0","influencer":"","lat":40.5541,"lng":-111.9539},{"id":"274591","name":"Kristy Lacole Perry","email":"kristy.perry@exprealty.com","email2":"k_hackle@yahoo.com","phone":"3523563777","city":"Trenton","state":"FL","zip":"32693","country":"US","status":"Active","level":"4","years":"0","influencer":"","lat":29.6746,"lng":-82.8117},{"id":"274586","name":"Ana Delia Roman-Rios","email":"ana.roman-rios@exprealty.com","email2":"a3787240@gmail.com","phone":"4132756565","city":"ORLANDO","state":"FL","zip":"32806","country":"US","status":"Active","level":"4","years":"0","influencer":"","lat":28.514,"lng":-81.357},{"id":"274542","name":"Andrew Robert Droste","email":"andrew.droste@exprealty.com","email2":"ardroste2756@gmail.com","phone":"(205) 960-8558","city":"Homewood","state":"AL","zip":"35209","country":"US","status":"Active","level":"5","years":"0","influencer":"","lat":33.4653,"lng":-86.8082},{"id":"274507","name":"Dylan Riordan","email":"dylan.riordan@exprealty.com","email2":"dylanriordan.realtor@gmail.com","phone":"4072670405","city":"Lake Helen","state":"FL","zip":"32744","country":"US","status":"Active","level":"5","years":"0","influencer":"","lat":28.9806,"lng":-81.2334},