[{"id":"531","name":"Miranda Martinez","email":"miranda.martinez@expaustralia.com.au","email2":"miranda@positivepropertyresults.com.au","phone":"421444145","city":"Caboolture","state":"","zip":"4510","country":"AU","status":"Active","level":"1","years":"0","influencer":"","lat":-27.0839336,"lng":152.9510863},{"id":"292895","name":"Tanya Yvette Giorgio","email":"tanya.giorgio@exprealty.com","email2":"t.ashtongiorgio@gmail.com","phone":"(416) 400-0792","city":"Aurora","state":"ON","zip":"L4G 0H3","country":"CA","status":"Active","level":"4","years":"0","influencer":"","lat":43.99973,"lng":-79.467545},{"id":"292386","name":"Arthur Phillip Dadson","email":"arthur.dadson@exprealty.com","email2":"678222nbinc@gmail.com","phone":"(506) 875-5951","city":"Elsipogtog First Nation","state":"NB","zip":"E4W 5S6","country":"CA","status":"Active","level":"3","years":"0","influencer":"","lat":46.5921669,"lng":-64.9809541},{"id":"291122","name":"Mina Baghaee","email":"mina.baghaee@exprealty.com","email2":"listwithmina@gmail.com","phone":"(416) 996-3928","city":"Richmond Hill","state":"ON","zip":"l4e 4k5","country":"CA","status":"Active","level":"3","years":"0","influencer":"","lat":43.8801166,"lng":-79.4392925},{"id":"290308","name":"Gina Campoli","email":"gina.campoli@exprealty.com","email2":"campolirealestate@gmail.com","phone":"(647) 296-8953","city":"Toronto","state":"ON","zip":"M6a 2k5","country":"CA","status":"Active","level":"2","years":"0","influencer":"","lat":43.6534817,"lng":-79.3839347},{"id":"288697","name":"Sarah Brennan","email":"sarah.brennan.288697@exprealty.com","email2":"sarah@sarahbrennan.ca","phone":"(506) 435-1178","city":"Wards creek","state":"NB","zip":"E4E 4T5","country":"CA","status":"Active","level":"1","years":"0","influencer":"","lat":45.6675137,"lng":-65.523449},{"id":"285809","name":"Dina Medeiros","email":"dina.medeiros@exprealty.com","email2":"fdina.medeiros@gmail.com","phone":"(416) 721-4046","city":"Newmarket","state":"ON","zip":"L3y 7v4","country":"CA","status":"Active","level":"3","years":"0","influencer":"","lat":44.056258,"lng":-79.461708},{"id":"285537","name":"Tyler Giesbrecht","email":"tyler.giesbrecht@exprealty.com","email2":"info@tylergrealty.com","phone":"(403) 606-2158","city":"Calgary","state":"AB","zip":"T3M 2G4","country":"CA","status":"Active","level":"3","years":"0","influencer":"","lat":51.0456064,"lng":-114.057541},{"id":"285525","name":"Jennie Marie Johnson","email":"jennie.johnson@exprealty.com","email2":"jennie@jenniejohnsonrealtor.com","phone":"(506) 380-6195","city":"Riverview","state":"NB","zip":"E1B 3E5","country":"CA","status":"Active","level":"5","years":"0","influencer":"","lat":46.0612076,"lng":-64.8033246},{"id":"285198","name":"Niki Petti","email":"niki.petti@exprealty.com","email2":"nikipetti@icloud.com","phone":"(514) 886-4559","city":"Welland","state":"ON","zip":"L3C 0E7","country":"CA","status":"Active","level":"4","years":"0","influencer":"","lat":42.9922181,"lng":-79.2484192},{"id":"285196","name":"Tanya Petti","email":"tanya.petti@exprealty.com","email2":"tanyapettirealestate@gmail.com","phone":"(905) 321-1897","city":"Welland","state":"ON","zip":"L3C 0E7","country":"CA","status":"Active","level":"3","years":"0","influencer":"","lat":42.9922181,"lng":-79.2484192},{"id":"284579","name":"Carla Lupo","email":"carla.lupo@exprealty.com","email2":"carla@carlasells.ca","phone":"(647) 960-7544","city":"King city","state":"ON","zip":"L7B 0S7","country":"CA","status":"Active","level":"2","years":"0","influencer":"","lat":43.929489,"lng":-79.5252267},{"id":"284500","name":"Abdhi Bhowmik","email":"abdhi.bhowmik@exprealty.com","email2":"abdhib.realtor@gmail.com","phone":"(506) 899-5671","city":"Dieppe","state":"NB","zip":"E1A 2C2","country":"CA","status":"Active","level":"6","years":"0","influencer":"","lat":46.0966797,"lng":-64.7357347},{"id":"282493","name":"April Pacheco","email":"april.pacheco@exprealty.com","email2":"april@pachecorealty.net","phone":"(506) 878-0476","city":"Moncton","state":"NB","zip":"E1G 5E2","country":"CA","status":"Active","level":"6","years":"0","influencer":"","lat":46.0985679,"lng":-64.8004265},{"id":"281394","name":"Shania Ashley Morrison","email":"shania.morrison@exprealty.com","email2":"shaniasellsthecity@gmail.com","phone":"(506) 688-4999","city":"Moncton","state":"NB","zip":"E1G 1T2","country":"CA","status":"Active","level":"3","years":"0","influencer":"","lat":46.0985679,"lng":-64.8004265},{"id":"279969","name":"Karina Gomez Cruz","email":"karina.gomezcruz@exprealty.com","email2":"karygocr@gmail.com","phone":"(647) 838-9384","city":"Toronto","state":"ON","zip":"M5R 2P6","country":"CA","status":"Active","level":"1","years":"0","influencer":"","lat":43.6534817,"lng":-79.3839347},{"id":"278927","name":"Fred Belliveau","email":"fred.belliveau@exprealty.com","email2":"fredbelliveaugma@gmail.com","phone":"(506) 381-5370","city":"Dieppe","state":"NB","zip":"E1A 7l9","country":"CA","status":"Active","level":"3","years":"0","influencer":"","lat":46.0966797,"lng":-64.7357347},{"id":"278738","name":"Jamie Isherwood","email":"jamie.isherwood@exprealty.com","email2":"jamieisherwood75@gmail.com","phone":"(289) 668-1668","city":"Thorold","state":"ON","zip":"l2v 5e5","country":"CA","status":"Active","level":"3","years":"0","influencer":"","lat":43.1249127,"lng":-79.2005935},{"id":"278683","name":"Amanda Griffiths","email":"amanda.griffiths@exprealty.com","email2":"realtorgirlsniagara@gmail.com","phone":"(905) 401-5142","city":"Niagara Falls","state":"ON","zip":"L2E 7K8","country":"CA","status":"Active","level":"3","years":"0","influencer":"","lat":43.1065603,"lng":-79.0639039},{"id":"276420","name":"Kaylee Arsenault","email":"kaylee.arsenault@exprealty.com","email2":"kaylee.arsenault96@gmail.com","phone":"(902) 315-2123","city":"Grand-Barachois","state":"NB","zip":"E4P 0T3","country":"CA","status":"Active","level":"6","years":"0","influencer":"","lat":46.2161247,"lng":-64.3995802},{"id":"275875","name":"Vince Nestico","email":"vince.nestico@exprealty.com","email2":"vincesellsvaughan@gmail.com","phone":"(647) 227-1007","city":"Wasaga Beach","state":"ON","zip":"L9Z 0H3","country":"CA","status":"Active","level":"2","years":"0","influencer":"","lat":44.5224813,"lng":-80.0203156},{"id":"274170","name":"Jashua Jimenez Rauda","email":"jashua.jimenezrauda@exprealty.com","email2":"jash.n.jimenez@gmail.com","phone":"(289) 788-0117","city":"Hamilton","state":"ON","zip":"L9A 2S3","country":"CA","status":"Active","level":"4","years":"0","influencer":"","lat":43.2560802,"lng":-79.8728583},{"id":"273736","name":"Cassandra Anne Bendig","email":"cassandra.bendig@exprealty.com","email2":"cassie.heartandhome@gmail.com","phone":"(306) 350-9019","city":"Prince Albert","state":"SK","zip":"S6V 6N4","country":"CA","status":"Active","level":"3","years":"0","influencer":"","lat":53.2020289,"lng":-105.7558962},{"id":"272025","name":"Brian David Fitzgerald","email":"brian.fitzgerald@exprealty.com","email2":"brian@wethrivegroup.com","phone":"(905) 537-9837","city":"St. Catharines","state":"ON","zip":"L2N 6J4","country":"CA","status":"Active","level":"6","years":"0","influencer":"","lat":43.1579812,"lng":-79.2441003},{"id":"271419","name":"Christian Goguen","email":"christian.goguen@exprealty.com","email2":"kitgoguen@hotmail.com","phone":"(506) 863-5901","city":"Dieppe","state":"NB","zip":"E1A 6C6","country":"CA","status":"Active","level":"7","years":"0","influencer":"","lat":46.0966797,"lng":-64.7357347},{"id":"269078","name":"Jawad Fadel","email":"jawad.fadel@exprealty.com","email2":"jfadel100@gmail.com","phone":"(239) 384-9825","city":"St-Sauveur","state":"QC","zip":"j0R 1R4","country":"CA","status":"Active","level":"2","years":"0","influencer":"","lat":45.894309,"lng":-74.158058},{"id":"267388","name":"Timea Edelenji","email":"timea.edelenji@exprealty.com","email2":"lifewithtimea@gmail.com","phone":"(416) 725-9190","city":"Caledon East","state":"ON","zip":"L7C 1H1","country":"CA","status":"Active","level":"3","years":"0","influencer":"","lat":43.8700931,"lng":-79.8670564},{"id":"266683","name":"Rebecca McGarvey","email":"rebecca.mcgarvey@exprealty.com","email2":"rebecca@rebeccamcgarvey.com","phone":"(905) 260-4305","city":"Sunderland","state":"ON","zip":"L0C 1H0","country":"CA","status":"Active","level":"3","years":"0","influencer":"","lat":44.263396,"lng":-79.0662},{"id":"265863","name":"Carolin Brookings","email":"carolin.brookings@exprealty.com","email2":"caro@yourmonctonhomes.com","phone":"(506) 888-9993","city":"Moncton","state":"NB","zip":"E4R 2X1","country":"CA","status":"Active","level":"6","years":"0","influencer":"","lat":46.0985679,"lng":-64.8004265},{"id":"264880","name":"Anna Marie Collette","email":"anna.collette@exprealty.com","email2":"annacolletterealestate@gmail.com","phone":"(506) 874-8757","city":"Sackville","state":"NB","zip":"E4L 2B6","country":"CA","status":"Active","level":"4","years":"1","influencer":"","lat":45.9079431,"lng":-64.3723708},{"id":"264614","name":"Todd William Antaya","email":"todd.antaya@exprealty.com","email2":"t.antaya@hotmail.com","phone":"(306) 981-6928","city":"Prince Albert","state":"SK","zip":"S6V 5R3","country":"CA","status":"Active","level":"3","years":"1","influencer":"","lat":53.2020289,"lng":-105.7558962},{"id":"263267","name":"Gabrielle Picard","email":"gabrielle.picard@exprealty.com","email2":"gabriellepicardrealtor@gmail.com","phone":"(506) 232-0028","city":"Memramcook","state":"NB","zip":"E4k 2a3","country":"CA","status":"Active","level":"6","years":"1","influencer":"","lat":45.9763743,"lng":-64.5669642},{"id":"263221","name":"Christien Belliveau","email":"christien.belliveau@exprealty.com","email2":"chrisbelliveau@yellowdoorteam.ca","phone":"(506) 866-6583","city":"Memramcook","state":"NB","zip":"E4K 3S9","country":"CA","status":"Active","level":"6","years":"1","influencer":"","lat":45.9763743,"lng":-64.5669642},{"id":"263217","name":"Melissa Doucet","email":"melissa.doucet@exprealty.com","email2":"melissa@yellowdoorteam.ca","phone":"(506) 864-4351","city":"Moncton","state":"NB","zip":"e1c 5z3","country":"CA","status":"Active","level":"5","years":"1","influencer":"Builders","lat":46.0985679,"lng":-64.8004265},{"id":"263117","name":"Danika Albert","email":"danika.albert@exprealty.com","email2":"danika.albert16@gmail.com","phone":"(506) 295-1301","city":"Irishtown","state":"NB","zip":"E1h 1x7","country":"CA","status":"Active","level":"4","years":"1","influencer":"","lat":46.219893,"lng":-64.7795962},{"id":"263090","name":"Tracy van Leemput","email":"tracy.vanleemput@exprealty.com","email2":"tracy@dreamhomesniagara.com","phone":"(905) 635-8007","city":"Stevensville","state":"ON","zip":"L0S 1S0","country":"CA","status":"Active","level":"5","years":"1","influencer":"","lat":42.944708,"lng":-79.0548733},{"id":"260578","name":"Ashley Cochran","email":"ashley.cochran@exprealty.com","email2":"ashley@ashleycochran.com","phone":"(506) 295-0072","city":"Moncton","state":"NB","zip":"E1E 2R2","country":"CA","status":"Active","level":"4","years":"1","influencer":"","lat":46.0985679,"lng":-64.8004265},{"id":"260089","name":"Joelle Lafrance","email":"joelle.lafrance@exprealty.com","email2":"joellerealtorexp@gmail.com","phone":"(819) 923-9558","city":"L'Ange-Gardien","state":"QC","zip":"J8L 0V9","country":"CA","status":"Active","level":"3","years":"1","influencer":"","lat":45.6264286,"lng":-75.4515899},{"id":"259111","name":"Erin Bomphray","email":"erin.bomphray@exprealty.com","email2":"erin@erinbomphray.ca","phone":"(306) 314-9762","city":"Prince Albert","state":"SK","zip":"S6V 5T9","country":"CA","status":"Active","level":"3","years":"1","influencer":"","lat":53.2020289,"lng":-105.7558962},{"id":"259107","name":"Brooke Karen Wozniak","email":"brooke.wozniak@exprealty.com","email2":"brooke@brookewozniak.com","phone":"(306) 980-9018","city":"Prince Albert","state":"SK","zip":"S6V 7W1","country":"CA","status":"Active","level":"2","years":"1","influencer":"","lat":53.2020289,"lng":-105.7558962},{"id":"257394","name":"Anthony Joseph Parazo","email":"anthony.parazo@exprealty.com","email2":"agentanthonyparazo@gmail.com","phone":"(416) 948-9711","city":"Burlington","state":"ON","zip":"L7T 4K7","country":"CA","status":"Active","level":"3","years":"1","influencer":"","lat":43.3248924,"lng":-79.7966835},{"id":"253210","name":"Brianna Figliuzzi","email":"brianna.figliuzzi@exprealty.com","email2":"brifigrealty@gmail.com","phone":"(514) 220-4063","city":"Oakville","state":"ON","zip":"L6H 0E4","country":"CA","status":"Active","level":"3","years":"1","influencer":"","lat":43.447436,"lng":-79.666672},{"id":"252508","name":"Michelle ANTOINETTE Heron","email":"michelle.heron@exprealty.com","email2":"agentmichelle.911@gmail.com","phone":"(416) 729-6424","city":"Mississauga","state":"ON","zip":"L5N 8C1","country":"CA","status":"Active","level":"3","years":"1","influencer":"","lat":43.5884727,"lng":-79.643658},{"id":"250712","name":"Patricia Lynn Miller","email":"patricia.l.miller@exprealty.com","email2":"pmillerresults@gmail.com","phone":"(519) 851-1851","city":"London","state":"ON","zip":"N6C 4V5","country":"CA","status":"Active","level":"3","years":"1","influencer":"","lat":42.9836747,"lng":-81.2496068},{"id":"248144","name":"Jefferson Andrew Thompson","email":"jefferson.thompson@exprealty.com","email2":"jeff_a_thompson@live.ca","phone":"(226) 374-4075","city":"London","state":"ON","zip":"N6C 5Z5","country":"CA","status":"Active","level":"3","years":"1","influencer":"","lat":42.9836747,"lng":-81.2496068},{"id":"242456","name":"Alexandre Bellefeuille","email":"alexandre.bellefeuille@exprealty.com","email2":"alexandre@tonchevous.com","phone":"(506) 850-6272","city":"Moncton","state":"NB","zip":"E1E 3M8","country":"CA","status":"Active","level":"3","years":"1","influencer":"","lat":46.0985679,"lng":-64.8004265},{"id":"241622","name":"Tammy Cook","email":"tammy.cook@exprealty.com","email2":"tammy@nataliedavison.ca","phone":"(506) 850-9132","city":"Dieppe","state":"NB","zip":"E1A 8L7","country":"CA","status":"Active","level":"3","years":"1","influencer":"","lat":46.0966797,"lng":-64.7357347},{"id":"240741","name":"Ryan Andrew Davison","email":"ryan.davison@exprealty.com","email2":"ryan@meetmeinmoncton.com","phone":"(506) 988-7926","city":"Moncton","state":"NB","zip":"E1H 0A3","country":"CA","status":"Active","level":"3","years":"1","influencer":"","lat":46.0985679,"lng":-64.8004265},{"id":"240730","name":"Thomas Garland","email":"thomas.garland@exprealty.com","email2":"tom@garlandhomes.pro","phone":"(506) 232-0922","city":"Moncton","state":"NB","zip":"E1c 7B7","country":"CA","status":"Active","level":"3","years":"1","influencer":"","lat":46.0985679,"lng":-64.8004265},{"id":"240585","name":"Natalie Davison","email":"natalie.davison@exprealty.com","email2":"natalie@nataliedavison.ca","phone":"(506) 961-0239","city":"Irishtown","state":"NB","zip":"E1H 0A3","country":"CA","status":"Active","level":"2","years":"1","influencer":"Builders","lat":46.219893,"lng":-64.7795962},{"id":"235656","name":"Elizabeth Wall","email":"beth.wall@exprealty.com","email2":"elizabeth@wallrealestate.ca","phone":"(403) 689-9823","city":"Calgary","state":"AB","zip":"T2Y 4E5","country":"CA","status":"Active","level":"1","years":"2","influencer":"","lat":51.0456064,"lng":-114.057541},{"id":"234641","name":"Cameron Brioux","email":"cameron.brioux@exprealty.com","email2":"info@cameronbrioux.com","phone":"(506) 899-1270","city":"Moncton","state":"NB","zip":"E1G 4Z7","country":"CA","status":"Active","level":"3","years":"2","influencer":"","lat":46.0985679,"lng":-64.8004265},{"id":"226690","name":"Joshua Donald Miller","email":"joshua.d.miller@exprealty.com","email2":"josh@londonhomegroup.com","phone":"(519) 495-6663","city":"Talbotville","state":"ON","zip":"n5p 3r2","country":"CA","status":"Active","level":"3","years":"2","influencer":"","lat":42.8031625,"lng":-81.2531447},{"id":"210308","name":"Jaspreet Gill","email":"jasmine.gill.on@exprealty.com","email2":"jasminegill01@yahoo.ca","phone":"(416) 827-8431","city":"Brampton","state":"ON","zip":"L6P 0Z4","country":"CA","status":"Active","level":"3","years":"2","influencer":"","lat":43.685832,"lng":-79.7599366},{"id":"209936","name":"Leera Edith Lewis","email":"leera.lewis@exprealty.com","email2":"leera.lewis@gmail.com","phone":"(416) 910-4027","city":"Whitby","state":"ON","zip":"L1P 0E1","country":"CA","status":"Active","level":"2","years":"2","influencer":"","lat":43.87982,"lng":-78.9421751},{"id":"202527","name":"Charolette Diana Batticks","email":"charolette.batticks@exprealty.com","email2":"charolettedianarealestate@gmail.com","phone":"(905) 999-3466","city":"Ajax","state":"ON","zip":"L1S 7P4","country":"CA","status":"Active","level":"1","years":"2","influencer":"","lat":43.8505287,"lng":-79.0208814},{"id":"187728","name":"Stefano Egidio Marcuzzi","email":"stefano.marcuzzi@exprealty.com","email2":"stefano@yourtrustedrealtygroup.com","phone":"(416) 389-0291","city":"Newmarket","state":"ON","zip":"L3X 0H3","country":"CA","status":"Active","level":"2","years":"3","influencer":"","lat":44.056258,"lng":-79.461708},{"id":"186093","name":"Georgette Marcuzzi","email":"georgette.marcuzzi@exprealty.com","email2":"georgette@yourtrustedrealtygroup.com","phone":"(416) 906-2417","city":"NEWMARKET","state":"ON","zip":"L3X 0H3","country":"CA","status":"Active","level":"1","years":"3","influencer":"Builders","lat":44.056258,"lng":-79.461708},{"id":"171911","name":"Esmeralda Elizabeth Jimenez Rauda","email":"esmeralda.jimenezrauda@exprealty.com","email2":"esmeraldajrrealestate@gmail.com","phone":"(905) 516-5776","city":"Hamilton","state":"ON","zip":"L8W 0B9","country":"CA","status":"Active","level":"3","years":"3","influencer":"","lat":43.2560802,"lng":-79.8728583},{"id":"169105","name":"Jacqueline Doris Corcoran","email":"jackie.corcoran@exprealty.com","email2":"jcorcoran70@gmail.com","phone":"(289) 441-1846","city":"Hamilton","state":"ON","zip":"L8M 3B9","country":"CA","status":"Active","level":"4","years":"3","influencer":"","lat":43.2560802,"lng":-79.8728583},{"id":"128224","name":"Rachel Miller","email":"rachel.miller.128224@exprealty.com","email2":"rachel@londonhomegroup.com","phone":"(519) 777-9500","city":"Talbotville","state":"ON","zip":"N5P 3T2","country":"CA","status":"Active","level":"2","years":"4","influencer":"","lat":42.8031625,"lng":-81.2531447},{"id":"128162","name":"Angela Wilson","email":"angela.c.wilson@exprealty.com","email2":"ang.wilson@icloud.com","phone":"(519) 933-5957","city":"London","state":"ON","zip":"N6H 2H1","country":"CA","status":"Active","level":"1","years":"4","influencer":"","lat":42.9836747,"lng":-81.2496068},{"id":"127102","name":"Rob Richards","email":"rob.richards@exprealty.com","email2":"rcrichards08@gmail.com","phone":"(226) 236-0613","city":"London","state":"ON","zip":"N6J 3T7","country":"CA","status":"Active","level":"2","years":"4","influencer":"","lat":42.9836747,"lng":-81.2496068},{"id":"118139","name":"Jose E. Monteiro","email":"jose.monteiro@exprealty.com","email2":"jose.elvino87@gmail.com","phone":"(519) 537-9091","city":"Burford","state":"ON","zip":"N0E 1A0","country":"CA","status":"Active","level":"3","years":"4","influencer":"","lat":43.1032142,"lng":-80.4292701},{"id":"100610","name":"Carrie Soave","email":"carrie.soave@exprealty.com","email2":"carriesoave@gmail.com","phone":"(905) 745-9011","city":"Niagara Falls","state":"ON","zip":"L2J 3B9","country":"CA","status":"Active","level":"2","years":"4","influencer":"Leaders","lat":43.1065603,"lng":-79.0639039},{"id":"15864","name":"Stephanie Jahn","email":"stephanie.jahn@expglobalspain.com","email2":"stephaniejahn15@gmail.com","phone":"664-01-77-36","city":"Sevilla","state":"","zip":"41003","country":"ES","status":"Active","level":"1","years":"0","influencer":"","lat":37.3886303,"lng":-5.9953403},{"id":"13935","name":"Radek Wa\u0142\u0119sa","email":"radek.walesa@exppoland.pl","email2":"radek.walesa@gmail.com","phone":"884792574","city":"Pozna\u0144","state":"","zip":"60-104","country":"PL","status":"Active","level":"1","years":"0","influencer":"","lat":52.4082663,"lng":16.9335199},{"id":"293595","name":"Mary Ramos","email":"mary.ramos@exprealty.com","email2":"maryrproperties@gmail.com","phone":"(417) 354-3226","city":"Monett","state":"MO","zip":"65708","country":"US","status":"Active","level":"4","years":"0","influencer":"","lat":36.9215543,"lng":-93.9231864},{"id":"293540","name":"Aleksandra Boyarskaya","email":"aleksandra.boyarskaya@exprealty.com","email2":"aleksandra.boyarskaya95@gmail.com","phone":"(719) 321-2392","city":"Castle Rock","state":"CO","zip":"80109","country":"US","status":"Active","level":"1","years":"0","influencer":"","lat":39.3722552,"lng":-104.858682},{"id":"293414","name":"Caitlin Elizabeth Crete","email":"caitlin.crete@exprealty.com","email2":"ccretehomes@gmail.com","phone":"(530) 513-3748","city":"Durham","state":"CA","zip":"95938","country":"US","status":"Active","level":"6","years":"0","influencer":"","lat":39.6460634,"lng":-121.8001235},{"id":"293383","name":"Sarah Erin Allen","email":"sarah.allen@exprealty.com","email2":"sarall@ymail.com","phone":"(708) 973-8024","city":"Hammond","state":"IN","zip":"46324","country":"US","status":"Active","level":"4","years":"0","influencer":"","lat":41.6173959,"lng":-87.5220108},{"id":"293391","name":"Camille Strate Fairbanks","email":"camille.fairbanks@exprealty.com","email2":"cpsfairbanks@gmail.com","phone":"(480) 414-0142","city":"Mesa","state":"AZ","zip":"85201","country":"US","status":"Active","level":"7","years":"0","influencer":"","lat":33.4151005,"lng":-111.831455},{"id":"293282","name":"Natasha Grable","email":"natasha.grable@exprealty.com","email2":"natashaegrable@gmail.com","phone":"(360) 280-1681","city":"Lacey","state":"WA","zip":"98516","country":"US","status":"Active","level":"3","years":"0","influencer":"","lat":47.0263876,"lng":-122.8072257},{"id":"293307","name":"Alexia Gentles","email":"alexia.gentles@exprealty.com","email2":"agentles98@gmail.com","phone":"(630) 209-1354","city":"Warner Robins","state":"GA","zip":"31093","country":"US","status":"Active","level":"4","years":"0","influencer":"","lat":32.6200973,"lng":-83.606568},{"id":"293292","name":"Kathleen Castro","email":"kathleen.castro@exprealty.com","email2":"kcastro@me.com","phone":"(631) 327-8017","city":"Manorville","state":"NY","zip":"11949","country":"US","status":"Active","level":"2","years":"0","influencer":"","lat":40.8734784,"lng":-72.8079636},{"id":"293194","name":"Melissa Rice","email":"melissa.rice@exprealty.com","email2":"melissaricerealtor@gmail.com","phone":"(541) 901-9194","city":"North Bend","state":"OR","zip":"97459","country":"US","status":"Active","level":"2","years":"0","influencer":"","lat":43.4065089,"lng":-124.2242824},{"id":"293182","name":"Erika Nicole Choriego","email":"erika.choriego@exprealty.com","email2":"realestatebyerikachoriego@gmail.com","phone":"(316) 259-5920","city":"Wichita","state":"KS","zip":"67214","country":"US","status":"Active","level":"5","years":"0","influencer":"","lat":37.6922361,"lng":-97.3375448},{"id":"293074","name":"Alana Melendez","email":"alana.melendez@exprealty.com","email2":"alanamelendez24@gmail.com","phone":"(850) 529-2616","city":"Delmar","state":"DE","zip":"19940","country":"US","status":"Active","level":"7","years":"0","influencer":"","lat":38.4586777,"lng":-75.5668141},{"id":"293035","name":"Cinderella Silva","email":"cinderella.silva@exprealty.com","email2":"cinderella@cinderellasilva.com","phone":"(209) 629-3847","city":"Carmichael","state":"CA","zip":"95608","country":"US","status":"Active","level":"4","years":"0","influencer":"","lat":38.617127,"lng":-121.3282843},{"id":"292977","name":"Amanda Pieper","email":"amanda.pieper@exprealty.com","email2":"amanda.pieper14@gmail.com","phone":"(816) 590-6241","city":"Cameron","state":"MO","zip":"64429","country":"US","status":"Active","level":"1","years":"0","influencer":"","lat":39.7412703,"lng":-94.2384482},{"id":"292975","name":"Ilyse Nicole Sugar","email":"ilyse.sugar@exprealty.com","email2":"ilysesugar@gmail.com","phone":"(774) 364-4504","city":"Milford","state":"MA","zip":"1757","country":"US","status":"Active","level":"5","years":"0","influencer":"","lat":39.2039703,"lng":-84.2379736},{"id":"292790","name":"Marija Wallace","email":"marija.wallace@exprealty.com","email2":"maya@theblairhomeco.com","phone":"(916) 606-6880","city":"Roseville","state":"CA","zip":"95747","country":"US","status":"Active","level":"6","years":"0","influencer":"","lat":38.7521235,"lng":-121.2880059},{"id":"292759","name":"Tiffany Hill","email":"tiffany.hill.292759@exprealty.com","email2":"bodaciousbites40@gmail.com","phone":"(660) 723-1648","city":"Warsaw","state":"MO","zip":"65355","country":"US","status":"Active","level":"1","years":"0","influencer":"","lat":38.2442186,"lng":-93.3774013},{"id":"292372","name":"Justin Rodriguez","email":"justin.rodriguez.292372@exprealty.com","email2":"jrodr6811@yahoo.com","phone":"(443) 306-2667","city":"Aquasco","state":"MD","zip":"20608","country":"US","status":"Active","level":"7","years":"0","influencer":"","lat":38.585265,"lng":-76.7250483},{"id":"292726","name":"Krystina Palumbo","email":"krystina.palumbo@exprealty.com","email2":"mrspalumbo2014@gmail.com","phone":"(814) 591-5747","city":"DuBois","state":"PA","zip":"15801","country":"US","status":"Active","level":"3","years":"0","influencer":"","lat":41.118651,"lng":-78.7622342},{"id":"292518","name":"Holly Taylor Ritts-Valentine","email":"holly.ritts-valentine@exprealty.com","email2":"hvalentine11@yahoo.com","phone":"(480) 407-7379","city":"Phoenix","state":"AZ","zip":"85016","country":"US","status":"Active","level":"5","years":"0","influencer":"","lat":33.4667444,"lng":-112.072103},{"id":"292620","name":"Cortney Jordan","email":"cortney.jordan@exprealty.com","email2":"cortneybroker@gmail.com","phone":"(509) 850-7086","city":"Chattaroy","state":"WA","zip":"99003","country":"US","status":"Active","level":"6","years":"0","influencer":"","lat":47.8894184,"lng":-117.3578196},{"id":"292622","name":"Jason Devon Mikell","email":"jason.mikell@exprealty.com","email2":"jasonmikell@ymail.com","phone":"(601) 325-6627","city":"Braintree","state":"MA","zip":"2184","country":"US","status":"Active","level":"5","years":"0","influencer":"","lat":42.2121375,"lng":-71.04384},{"id":"292548","name":"Amy Gipson Wingo","email":"amy.wingo@exprealty.com","email2":"amygwingo@gmail.com","phone":"(615) 948-9825","city":"Goodlettsville","state":"TN","zip":"37072","country":"US","status":"Active","level":"3","years":"0","influencer":"","lat":36.3231067,"lng":-86.7133302},{"id":"292503","name":"Kaylee Willett","email":"kaylee.willett@exprealty.com","email2":"kayleereagent@gmail.com","phone":"(425) 530-3878","city":"Arlington","state":"WA","zip":"98223","country":"US","status":"Active","level":"7","years":"0","influencer":"","lat":48.1810957,"lng":-122.1389548},{"id":"292487","name":"Mataya Jeanne Davis","email":"mataya.davis@exprealty.com","email2":"matayalewis24@gmail.com","phone":"(206) 530-1436","city":"Lakewood","state":"WA","zip":"98498","country":"US","status":"Active","level":"6","years":"0","influencer":"","lat":47.1717649,"lng":-122.518458},{"id":"292396","name":"Nora Catherine Trotman","email":"nora.trotman@exprealty.com","email2":"noratrotman.tc@gmail.com","phone":"(850) 333-1732","city":"Pensacola","state":"FL","zip":"32505","country":"US","status":"Active","level":"5","years":"0","influencer":"","lat":30.421309,"lng":-87.2169149},{"id":"292330","name":"Ireal Travis","email":"ireal.travis@exprealty.com","email2":"ireetravis@gmail.com","phone":"(708) 980-9387","city":"Chicago Heights","state":"IL","zip":"60411","country":"US","status":"Active","level":"4","years":"0","influencer":"","lat":41.5062834,"lng":-87.6357079},{"id":"292323","name":"Katin Rae Davis","email":"katin.davis@exprealty.com","email2":"katinraedavis@gmail.com","phone":"(850) 380-6740","city":"Pensacola","state":"FL","zip":"32502","country":"US","status":"Active","level":"4","years":"0","influencer":"","lat":30.421309,"lng":-87.2169149},{"id":"292358","name":"Eugenia Mantuc","email":"eugenia.mantuc@exprealty.com","email2":"emantuc9@gmail.com","phone":"(704) 330-3743","city":"Mooresville","state":"NC","zip":"28117","country":"US","status":"Active","level":"1","years":"0","influencer":"","lat":35.5848596,"lng":-80.8100724},{"id":"292090","name":"Prestlie Christine Hagar","email":"prestlie.hagar@exprealty.com","email2":"prestlie.realtor@gmail.com","phone":"(530) 219-5780","city":"Winters","state":"CA","zip":"95694","country":"US","status":"Active","level":"4","years":"0","influencer":"","lat":38.5249065,"lng":-121.970801},{"id":"292087","name":"Michael Noel Blair Jr","email":"michael.blair@exprealty.com","email2":"michaelnblairjr@gmail.com","phone":"(916) 770-7462","city":"Roseville","state":"CA","zip":"95747","country":"US","status":"Active","level":"6","years":"0","influencer":"","lat":38.7521235,"lng":-121.2880059},{"id":"292066","name":"Roxanne Schwandt-Knutson","email":"roxanne.sk@exprealty.com","email2":"dreammakerpros@gmail.com","phone":"(920) 470-7451","city":"Neenah","state":"WI","zip":"54956","country":"US","status":"Active","level":"2","years":"0","influencer":"","lat":44.1858193,"lng":-88.462609},{"id":"291896","name":"Jeri Hunt","email":"jeri.hunt@exprealty.com","email2":"jeriahunt@yahoo.com","phone":"(270) 836-2772","city":"Princeton","state":"KY","zip":"42445","country":"US","status":"Active","level":"3","years":"0","influencer":"","lat":37.1092162,"lng":-87.8819595},{"id":"291953","name":"Michelle Szweda","email":"michelle.szweda@exprealty.com","email2":"mlszweda1831@gmail.com","phone":"(920) 410-8802","city":"Oshkosh","state":"WI","zip":"54904","country":"US","status":"Active","level":"2","years":"0","influencer":"","lat":44.0206919,"lng":-88.5408574},{"id":"291955","name":"Trish Ann Welzien","email":"trish.welzien@exprealty.com","email2":"trishwelzienre@gmail.com","phone":"(920) 257-9001","city":"Menasha","state":"WI","zip":"54952","country":"US","status":"Active","level":"2","years":"0","influencer":"","lat":44.2022293,"lng":-88.4465361},{"id":"291807","name":"Adam Michael Hasenfus","email":"adam.hasenfus@exprealty.com","email2":"adam.hasenfus@gmail.com","phone":"(920) 404-5172","city":"Sherwood","state":"WI","zip":"54169","country":"US","status":"Active","level":"2","years":"0","influencer":"","lat":44.1736983,"lng":-88.2597625},{"id":"291954","name":"Julie Ann Ketola","email":"julie.ketola@exprealty.com","email2":"thejulieketola@gmail.com","phone":"(920) 203-5427","city":"Oshkosh","state":"WI","zip":"54904","country":"US","status":"Active","level":"1","years":"0","influencer":"","lat":44.0206919,"lng":-88.5408574},{"id":"291929","name":"Roberto Arenas","email":"roberto.arenas@exprealty.com","email2":"robsellinghomes@aol.com","phone":"(407) 615-9443","city":"Kissimmee","state":"FL","zip":"34743","country":"US","status":"Active","level":"7","years":"0","influencer":"","lat":28.2918995,"lng":-81.4075838},{"id":"291890","name":"Chelsea Gorman","email":"chelsea.gorman@exprealty.com","email2":"chelseagorman305@gmail.com","phone":"(305) 807-3568","city":"South Miami","state":"FL","zip":"33143","country":"US","status":"Active","level":"2","years":"0","influencer":"","lat":25.7076017,"lng":-80.2933846},{"id":"291934","name":"Ricardo Jose Martinez","email":"ricardo.j.martinez@exprealty.com","email2":"rjhomes.mi@gmail.com","phone":"(313) 740-6974","city":"Detroit","state":"MI","zip":"48217","country":"US","status":"Active","level":"3","years":"0","influencer":"","lat":42.3315509,"lng":-83.0466403},{"id":"291909","name":"Shanika Shantara Olden","email":"shanika.olden@exprealty.com","email2":"shanikaolden@icloud.com","phone":"(910) 922-2559","city":"Raeford","state":"NC","zip":"28376","country":"US","status":"Active","level":"3","years":"0","influencer":"","lat":34.9809996,"lng":-79.2241998},{"id":"291474","name":"Bryanna Nicole Athens","email":"bryanna.athens@exprealty.com","email2":"bryanna@athensrealtygroup.com","phone":"(916) 945-7300","city":"Roseville","state":"CA","zip":"95747","country":"US","status":"Active","level":"5","years":"0","influencer":"","lat":38.7521235,"lng":-121.2880059},{"id":"291689","name":"Kervensky Demmat","email":"kervensky.demmat@exprealty.com","email2":"dkfinancialg@gmail.com","phone":"(321) 217-8840","city":"orlando","state":"FL","zip":"32805","country":"US","status":"Active","level":"7","years":"0","influencer":"","lat":28.5421218,"lng":-81.379045},{"id":"291765","name":"Blair McKinsey Campbell","email":"blair.campbell@exprealty.com","email2":"blair@heirloomrealtygroup.com","phone":"(214) 938-0921","city":"Frisco","state":"TX","zip":"75034","country":"US","status":"Active","level":"6","years":"0","influencer":"","lat":33.1505998,"lng":-96.8238183},{"id":"291682","name":"Kaleigh Amber Borzilleri","email":"kaleigh.borzilleri@exprealty.com","email2":"kaleighborzilleri@gmail.com","phone":"(954) 470-2676","city":"Saint Johns","state":"FL","zip":"32259","country":"US","status":"Active","level":"6","years":"0","influencer":"","lat":29.9032284,"lng":-81.4145468},{"id":"291542","name":"Kyle Wesley Achziger","email":"kyle.achziger@exprealty.com","email2":"kwachziger@gmail.com","phone":"(406) 499-6750","city":"Kalispell","state":"MT","zip":"59901","country":"US","status":"Active","level":"1","years":"0","influencer":"","lat":48.202158,"lng":-114.315321},{"id":"291510","name":"Miles Samuel Ford","email":"miles.ford@exprealty.com","email2":"msfordbusiness@gmail.com","phone":"(774) 313-0416","city":"East Wareham","state":"MA","zip":"2538","country":"US","status":"Active","level":"5","years":"0","influencer":"","lat":41.7628042,"lng":-70.6790489},{"id":"291485","name":"Ashlyn Nicole Highbaugh","email":"ashlyn.highbaugh@exprealty.com","email2":"ashlynrealty@gmail.com","phone":"(916) 532-6141","city":"Citrus Heights","state":"CA","zip":"95621","country":"US","status":"Active","level":"4","years":"0","influencer":"","lat":38.7071247,"lng":-121.2810611},{"id":"291212","name":"Nicole Diane Waters Green","email":"nicole.green@exprealty.com","email2":"nicolegreenrealestate@gmail.com","phone":"(407) 868-1181","city":"Rockledge","state":"FL","zip":"32955","country":"US","status":"Active","level":"3","years":"0","influencer":"","lat":28.330831,"lng":-80.7349162},{"id":"290806","name":"Erika Colon LLC","email":"erika.colonllc@exprealty.com","email2":"ecolonrealty@gmail.com","phone":"(407) 864-5369","city":"Saint Cloud","state":"FL","zip":"34771","country":"US","status":"Active","level":"1","years":"0","influencer":"","lat":28.2498534,"lng":-81.2839038},{"id":"291231","name":"Johnna Melton","email":"johnna.melton@exprealty.com","email2":"johnna@aboveandbeyondrealty.net","phone":"(469) 323-2602","city":"Aubrey","state":"TX","zip":"76227","country":"US","status":"Active","level":"7","years":"0","influencer":"","lat":33.3142085,"lng":-96.9756323},{"id":"291130","name":"Albert Withers","email":"albert.withers@exprealty.com","email2":"carlyleproperties@gmail.com","phone":"(803) 640-3519","city":"Aiken","state":"SC","zip":"29803","country":"US","status":"Active","level":"7","years":"0","influencer":"","lat":33.5616173,"lng":-81.7224579},{"id":"291193","name":"Elizabeth R Waters","email":"lisa.waters@exprealty.com","email2":"lisawatersrealestate@gmail.com","phone":"(630) 746-7973","city":"Batavia","state":"IL","zip":"60510","country":"US","status":"Active","level":"1","years":"0","influencer":"","lat":41.8500284,"lng":-88.3125738},{"id":"291206","name":"Tarah Schwisow","email":"tarah.schwisow@exprealty.com","email2":"tarahschwisow@gmail.com","phone":"(509) 939-9163","city":"Spokane","state":"WA","zip":"99204","country":"US","status":"Active","level":"6","years":"0","influencer":"","lat":47.6571934,"lng":-117.42351},{"id":"291116","name":"Melissa Martin","email":"melissa.martin.291116@exprealty.com","email2":"mcmartin6405@aol.com","phone":"(314) 568-3621","city":"Saint Charles","state":"MO","zip":"63301","country":"US","status":"Active","level":"8","years":"0","influencer":"","lat":38.783855,"lng":-90.481677},{"id":"291150","name":"Matthew Blodgett","email":"matthew.blodgett@exprealty.com","email2":"matt@zeeba.co","phone":"(406) 565-8760","city":"Bozeman","state":"MT","zip":"59718","country":"US","status":"Active","level":"3","years":"0","influencer":"","lat":45.6794293,"lng":-111.044047},{"id":"291099","name":"Jacob Ryan Haseley","email":"jacob.haseley@exprealty.com","email2":"haseleyjacob@gmail.com","phone":"(616) 450-4604","city":"Wyoming","state":"MI","zip":"49418","country":"US","status":"Active","level":"4","years":"0","influencer":"","lat":42.9132581,"lng":-85.7057035},{"id":"291034","name":"Jaqualine Newberry","email":"jaqualine.newberry@exprealty.com","email2":"homesbyjaqualine@gmail.com","phone":"(240) 538-2450","city":"California","state":"MD","zip":"20619","country":"US","status":"Active","level":"2","years":"0","influencer":"","lat":38.2976295,"lng":-76.5081118},{"id":"290980","name":"Kimberley Sunlin","email":"kimberley.sunlin@exprealty.com","email2":"ksunlin@sbcglobal.net","phone":"(214) 403-5458","city":"Plano","state":"TX","zip":"75025","country":"US","status":"Active","level":"7","years":"0","influencer":"","lat":33.0136764,"lng":-96.6925096},{"id":"290832","name":"Daniel Meyer Callton","email":"daniel.callton@exprealty.com","email2":"danielmcallton@gmail.com","phone":"(517) 395-6994","city":"Okemos","state":"MI","zip":"48864","country":"US","status":"Active","level":"2","years":"0","influencer":"","lat":42.7221021,"lng":-84.4275259},{"id":"290756","name":"Ellie Marie Lyro","email":"ellie.lyro@exprealty.com","email2":"ellielyro@gmail.com","phone":"(253) 380-8205","city":"Tacoma","state":"WA","zip":"98405","country":"US","status":"Active","level":"8","years":"0","influencer":"","lat":47.2455013,"lng":-122.438329},{"id":"290541","name":"Jennifer Gayle Golden","email":"jennifer.golden@exprealty.com","email2":"hello@jenagolden.com","phone":"(678) 640-3249","city":"Cumming","state":"GA","zip":"30041","country":"US","status":"Active","level":"2","years":"0","influencer":"","lat":34.2073196,"lng":-84.1401926},{"id":"290654","name":"Shivang Kapatel","email":"shivang.kapatel@exprealty.com","email2":"realtybyshiv@gmail.com","phone":"(410) 948-0640","city":"Sterling Heights","state":"MI","zip":"48312","country":"US","status":"Active","level":"2","years":"0","influencer":"","lat":42.5803122,"lng":-83.0302033},{"id":"290629","name":"Rachael Ruiz De Velasco","email":"rachael.ruizdevelasco@exprealty.com","email2":"rachael@reachouttorachael.com","phone":"(214) 783-1180","city":"Tom Bean","state":"TX","zip":"75489","country":"US","status":"Active","level":"5","years":"0","influencer":"","lat":33.5201081,"lng":-96.4838749},{"id":"290617","name":"Kathleen Casarin","email":"kathleen.casarin@exprealty.com","email2":"kathycsells@gmail.com","phone":"(570) 351-1444","city":"Archbald","state":"PA","zip":"18403","country":"US","status":"Active","level":"1","years":"0","influencer":"","lat":41.4948038,"lng":-75.5368521},{"id":"290458","name":"Kenneth Joseph McNinch","email":"kenneth.mcninch@exprealty.com","email2":"kenmcninch12@gmail.com","phone":"(916) 532-7486","city":"Rocklin","state":"CA","zip":"95765","country":"US","status":"Active","level":"4","years":"0","influencer":"","lat":38.7907339,"lng":-121.2357828},{"id":"290405","name":"Tamia Haines","email":"tamia.haines@exprealty.com","email2":"thebloomesthetics@gmail.com","phone":"(678) 699-6211","city":"Midland","state":"GA","zip":"31820","country":"US","status":"Active","level":"5","years":"0","influencer":"","lat":32.5748608,"lng":-84.827152},{"id":"290377","name":"Carol May Boyle","email":"carol.boyle@exprealty.com","email2":"carolmayboyle@gmail.com","phone":"(214) 789-0178","city":"Mckinney","state":"TX","zip":"75069","country":"US","status":"Active","level":"9","years":"0","influencer":"","lat":33.1976496,"lng":-96.6154471},{"id":"290354","name":"Savannah S Long","email":"savannah.long@exprealty.com","email2":"savannah@savannahsellsdenver.com","phone":"(703) 966-2864","city":"Thornton","state":"CO","zip":"80241","country":"US","status":"Active","level":"5","years":"0","influencer":"","lat":39.8695516,"lng":-104.985181},{"id":"290292","name":"Ashley Brooke Ramos","email":"ashley.b.ramos@exprealty.com","email2":"ashley@homesbyashleyramos.com","phone":"(707) 592-5342","city":"Vacaville","state":"CA","zip":"95687","country":"US","status":"Active","level":"4","years":"0","influencer":"","lat":38.3565773,"lng":-121.9877444},{"id":"290238","name":"Christine Ann Weinstein","email":"christine.weinstein@exprealty.com","email2":"christinesellstheshore@gmail.com","phone":"(508) 463-6565","city":"Bradenton","state":"FL","zip":"34203","country":"US","status":"Active","level":"4","years":"0","influencer":"","lat":27.4989278,"lng":-82.5748194},{"id":"290164","name":"Monica Michelle Tarrant","email":"monica.tarrant@exprealty.com","email2":"propertybymonica@gmail.com","phone":"(916) 756-5467","city":"Elk Grove","state":"CA","zip":"95624","country":"US","status":"Active","level":"4","years":"0","influencer":"","lat":38.4087993,"lng":-121.3716178},{"id":"290143","name":"Megan Oh","email":"megan.oh@exprealty.com","email2":"team@meganoh.com","phone":"(469) 656-8150","city":"Allen","state":"TX","zip":"75002","country":"US","status":"Active","level":"8","years":"0","influencer":"","lat":33.11341,"lng":-96.66469},{"id":"290036","name":"Adenike John","email":"nike.john@exprealty.com","email2":"nike@vibe-re.com","phone":"(617) 640-4104","city":"Dedham","state":"MA","zip":"2026","country":"US","status":"Active","level":"4","years":"0","influencer":"","lat":44.7296506,"lng":-68.623688},{"id":"289910","name":"Hannah Blazon","email":"hannah.blazon@exprealty.com","email2":"hannah.blazon@gmail.com","phone":"(805) 760-4702","city":"Cheney","state":"WA","zip":"99004","country":"US","status":"Active","level":"5","years":"0","influencer":"","lat":47.4892246,"lng":-117.579304},{"id":"289904","name":"Tania Gardere MacLeod","email":"tania.macleod@exprealty.com","email2":"tania@itstheperfectspot.com","phone":"(404) 964-2267","city":"Roswell","state":"GA","zip":"30075","country":"US","status":"Active","level":"2","years":"0","influencer":"","lat":34.02332,"lng":-84.360022},{"id":"289906","name":"Eunice Okai Eshun","email":"eunice.okaieshun@exprealty.com","email2":"eopendoors@outlook.com","phone":"(301) 974-2639","city":"Bowie","state":"MD","zip":"20716","country":"US","status":"Active","level":"2","years":"0","influencer":"","lat":39.0080601,"lng":-76.7797899},{"id":"289862","name":"Angela Conaway Wallace","email":"angela.wallace@exprealty.com","email2":"angela.wallace.exp@gmail.com","phone":"(719) 207-2986","city":"Cordes Lakes","state":"AZ","zip":"86333","country":"US","status":"Active","level":"4","years":"0","influencer":"","lat":34.3135371,"lng":-112.1048215},{"id":"289748","name":"Deneshia Smith","email":"deneshia.smith@exprealty.com","email2":"deneshiasmith.realtor@gmail.com","phone":"(501) 414-6525","city":"Thonotosassa","state":"FL","zip":"33592","country":"US","status":"Active","level":"2","years":"0","influencer":"","lat":28.058051,"lng":-82.2946444},{"id":"289674","name":"Taylor Michelle Wilkins","email":"taylor.wilkins@exprealty.com","email2":"taylormichellewilkins@gmail.com","phone":"(901) 232-9453","city":"Harlem","state":"GA","zip":"30814","country":"US","status":"Active","level":"6","years":"0","influencer":"","lat":33.4145834,"lng":-82.3126237},{"id":"289540","name":"Taylor Fleming","email":"taylor.fleming@exprealty.com","email2":"tfleming.realestate@gmail.com","phone":"(772) 254-3621","city":"Port St Lucie","state":"FL","zip":"34953","country":"US","status":"Active","level":"1","years":"0","influencer":"","lat":27.2939333,"lng":-80.3503283},{"id":"289519","name":"Sunny Konop","email":"sunny.konop@exprealty.com","email2":"sunnykonop@gmail.com","phone":"(253) 709-7777","city":"Ravensdale","state":"WA","zip":"98051","country":"US","status":"Active","level":"6","years":"0","influencer":"","lat":47.3580557,"lng":-121.9788446},{"id":"289490","name":"Jennifer Lee Hite","email":"jennifer.hite@exprealty.com","email2":"cleanerwithmellc@gmail.com","phone":"(850) 295-3111","city":"Fanning Springs","state":"FL","zip":"32693","country":"US","status":"Active","level":"6","years":"0","influencer":"","lat":29.5907915,"lng":-82.9292906},{"id":"289487","name":"Eileen Hyacinth Ferguson","email":"eileen.ferguson@exprealty.com","email2":"eileen@eileenferguson.com","phone":"(631) 381-2133","city":"Ridge","state":"NY","zip":"11961","country":"US","status":"Active","level":"2","years":"0","influencer":"","lat":40.8939875,"lng":-72.8959364},{"id":"289458","name":"Jenni Lynn Ko","email":"jenni.ko@exprealty.com","email2":"jennisellsfolsom@gmail.com","phone":"(916) 899-0851","city":"Folsom","state":"CA","zip":"95630","country":"US","status":"Active","level":"1","years":"0","influencer":"","lat":38.6779591,"lng":-121.176058},{"id":"289450","name":"Jessica Cherie Blommaert","email":"jessica.blommaert@exprealty.com","email2":"jessblommaert@gmail.com","phone":"(843) 288-1157","city":"Summerville","state":"SC","zip":"29486","country":"US","status":"Active","level":"3","years":"0","influencer":"","lat":33.0186699,"lng":-80.1762704},{"id":"289413","name":"Geraldine Seymour","email":"geraldine.seymour@exprealty.com","email2":"geri_seymour@yahoo.com","phone":"(760) 803-3720","city":"Goodyear","state":"AZ","zip":"85395","country":"US","status":"Active","level":"4","years":"0","influencer":"","lat":33.4672279,"lng":-112.3853489},{"id":"289331","name":"Harley Danielle Hires","email":"harley.hires@exprealty.com","email2":"harleyhires@gmail.com","phone":"(352) 318-8462","city":"Old Town","state":"FL","zip":"32680","country":"US","status":"Active","level":"5","years":"0","influencer":"","lat":29.6013454,"lng":-82.9817927},{"id":"289274","name":"Richard Colter Houle","email":"richard.houle@exprealty.com","email2":"dunnellonman@gmail.com","phone":"(352) 888-6000","city":"Dunnellon","state":"FL","zip":"34432","country":"US","status":"Active","level":"5","years":"0","influencer":"","lat":29.0491426,"lng":-82.4609331},{"id":"289226","name":"Emelinda Levett Houle","email":"emelinda.houle@exprealty.com","email2":"emylac@yahoo.com","phone":"(352) 216-2007","city":"Dunnellon","state":"FL","zip":"34432","country":"US","status":"Active","level":"4","years":"0","influencer":"","lat":29.0491426,"lng":-82.4609331},{"id":"289242","name":"Hailey Elizabeth Smith","email":"hailey.smith@exprealty.com","email2":"realtorhaileysmith@gmail.com","phone":"(562) 881-8053","city":"Corona","state":"CA","zip":"92882","country":"US","status":"Active","level":"5","years":"0","influencer":"","lat":33.8752945,"lng":-117.566444},{"id":"289236","name":"Jesse Daniel Bernal","email":"jesse.bernal@exprealty.com","email2":"jessejubilee@icloud.com","phone":"(408) 591-0811","city":"Roseville","state":"CA","zip":"95747","country":"US","status":"Active","level":"6","years":"0","influencer":"","lat":38.7521235,"lng":-121.2880059},{"id":"289152","name":"Kara P Saghir","email":"kara.saghir@exprealty.com","email2":"karasaghir.realtor@gmail.com","phone":"(317) 402-6076","city":"Sanford","state":"FL","zip":"32771","country":"US","status":"Active","level":"5","years":"0","influencer":"","lat":28.8117345,"lng":-81.2680223},{"id":"289136","name":"Tara Lynn Miller","email":"tara.l.miller@exprealty.com","email2":"tara@movingwithmiller.com","phone":"(937) 418-4538","city":"Troy","state":"OH","zip":"45373","country":"US","status":"Active","level":"2","years":"0","influencer":"","lat":40.0394982,"lng":-84.2032767},{"id":"289118","name":"Monica Elena Redondo","email":"monica.e.redondo@exprealty.com","email2":"casasdeidaho@gmail.com","phone":"(208) 991-2352","city":"Boise","state":"ID","zip":"83705","country":"US","status":"Active","level":"6","years":"0","influencer":"","lat":43.6166163,"lng":-116.200886},{"id":"289081","name":"Ivanna Rosario","email":"ivanna.rosario@exprealty.com","email2":"ivannar6496@gmail.com","phone":"(407) 990-7303","city":"Four Corners","state":"FL","zip":"34747","country":"US","status":"Active","level":"1","years":"0","influencer":"","lat":28.3550481,"lng":-81.6770547},{"id":"289064","name":"John Kenneth Surabian","email":"john.surabian@exprealty.com","email2":"jsurabs1@gmail.com","phone":"(781) 775-4134","city":"Stoneham","state":"MA","zip":"2180","country":"US","status":"Active","level":"4","years":"0","influencer":"","lat":41.8072968,"lng":-79.0936106},{"id":"289054","name":"Kelly Thornhill-McCampbell","email":"kelly.thornhill-mccampbell@exprealty.com","email2":"kelly@kellymccampbellhome.com","phone":"(707) 761-5056","city":"Vacaville","state":"CA","zip":"95688","country":"US","status":"Active","level":"3","years":"0","influencer":"","lat":38.3565773,"lng":-121.9877444},{"id":"288924","name":"Andreea Matei","email":"andreea.matei@exprealty.com","email2":"matei.andreea@gmail.com","phone":"(248) 345-9285","city":"Commerce Township","state":"MI","zip":"48390","country":"US","status":"Active","level":"2","years":"0","influencer":"","lat":42.5911431,"lng":-83.4907721},{"id":"288910","name":"Cristal Asencio De Leon","email":"cristal.asenciodeleon@exprealty.com","email2":"caleon116@gmail.com","phone":"(206) 489-6513","city":"Federal Way","state":"WA","zip":"98023","country":"US","status":"Active","level":"6","years":"0","influencer":"","lat":47.313494,"lng":-122.33931},{"id":"288626","name":"Nicole Johnson","email":"nicole.johnson.288626@exprealty.com","email2":"nicolejrealestate@gmail.com","phone":"(253) 389-3830","city":"Puyallup","state":"WA","zip":"98373","country":"US","status":"Active","level":"6","years":"0","influencer":"","lat":47.1849009,"lng":-122.29214},{"id":"288581","name":"Conner Joseph Bokma","email":"conner.bokma@exprealty.com","email2":"cbokma@hancock-enterprises.com","phone":"(406) 366-2830","city":"Billings","state":"MT","zip":"59106","country":"US","status":"Active","level":"5","years":"0","influencer":"","lat":45.7874957,"lng":-108.49607},{"id":"288523","name":"Mariah Kamal","email":"mariah.kamal@exprealty.com","email2":"livingwithmk@gmail.com","phone":"(407) 797-1809","city":"Four Corners","state":"FL","zip":"34747","country":"US","status":"Active","level":"1","years":"0","influencer":"","lat":28.3550481,"lng":-81.6770547},{"id":"288424","name":"Maria Gil","email":"maria.gil@exprealty.com","email2":"lnapoles2025@gmail.com","phone":"1 (813) 785-5958","city":"Brandon","state":"FL","zip":"33511","country":"US","status":"Active","level":"3","years":"0","influencer":"","lat":27.937801,"lng":-82.2859247},{"id":"288491","name":"Citlally Pedraza","email":"citlally.pedraza@exprealty.com","email2":"citlallyrealestate@gmail.com","phone":"(208) 982-8706","city":"Nampa","state":"ID","zip":"83686","country":"US","status":"Active","level":"5","years":"0","influencer":"","lat":43.5780381,"lng":-116.5616885},{"id":"288461","name":"Candida Shriver","email":"candida.shriver@exprealty.com","email2":"candida.properties@gmail.com","phone":"(304) 893-1126","city":"South Charleston","state":"WV","zip":"25303","country":"US","status":"Active","level":"2","years":"0","influencer":"","lat":38.368429,"lng":-81.69957},{"id":"288455","name":"Michelle Fullmer","email":"michelle.fullmer@exprealty.com","email2":"mfullmer00@gmail.com","phone":"(443) 800-1676","city":"Baltimore","state":"MD","zip":"21224","country":"US","status":"Active","level":"2","years":"0","influencer":"","lat":39.2908816,"lng":-76.610759},{"id":"288456","name":"Kimberly Kussman","email":"kimberly.kussman@exprealty.com","email2":"kimkussmanrealtor@gmail.com","phone":"(978) 273-4378","city":"Sandy","state":"UT","zip":"84093","country":"US","status":"Active","level":"5","years":"0","influencer":"","lat":40.5710454,"lng":-111.8953815},{"id":"288352","name":"Jessica A Thompson","email":"jessica.a.thompson@exprealty.com","email2":"ja1thompson@yahoo.com","phone":"(480) 241-2090","city":"Gilbert","state":"AZ","zip":"85296","country":"US","status":"Active","level":"3","years":"0","influencer":"","lat":33.3527632,"lng":-111.789037},{"id":"288421","name":"Christina B Carrera","email":"christina.carrera@exprealty.com","email2":"christina@ahukocaballi.com","phone":"(760) 777-0929","city":"Cathedral City","state":"CA","zip":"92234","country":"US","status":"Active","level":"1","years":"0","influencer":"","lat":33.7810031,"lng":-116.464076},{"id":"288390","name":"Alexis Chae Horyza","email":"alexis.horyza@exprealty.com","email2":"alexishoryzarealestate@gmail.com","phone":"(208) 863-0730","city":"Meridian","state":"ID","zip":"83646","country":"US","status":"Active","level":"2","years":"0","influencer":"","lat":43.6086295,"lng":-116.392326},{"id":"288383","name":"Hilary Lowell Fisher","email":"hilary.fisher@exprealty.com","email2":"hilaryfisher13@gmail.com","phone":"(425) 750-2885","city":"Snohomish","state":"WA","zip":"98290","country":"US","status":"Active","level":"7","years":"0","influencer":"","lat":47.9113592,"lng":-122.0955144},{"id":"288330","name":"Brittany Marie Smith","email":"brittany.m.smith@exprealty.com","email2":"brittanysmith@abbottmartingroup.com","phone":"(770) 827-4284","city":"Panama City Beach","state":"FL","zip":"32413","country":"US","status":"Active","level":"5","years":"0","influencer":"","lat":30.1765914,"lng":-85.805386},{"id":"288263","name":"Matthew J Thompson","email":"matthew.j.thompson@exprealty.com","email2":"matt@tgarizon.com","phone":"(480) 980-5037","city":"Gilbert","state":"AZ","zip":"85296","country":"US","status":"Active","level":"3","years":"0","influencer":"","lat":33.3527632,"lng":-111.789037},{"id":"286226","name":"Rebecca Carolyn Goss","email":"rebecca.goss@exprealty.com","email2":"rcgossrealestate@gmail.com","phone":"(214) 709-2444","city":"Dupont","state":"WA","zip":"98327","country":"US","status":"Active","level":"6","years":"0","influencer":"","lat":47.0990689,"lng":-122.637546},{"id":"288169","name":"Kimberly Fingerson","email":"kimberly.fingerson@exprealty.com","email2":"kimfingerson.re@gmail.com","phone":"(206) 914-3267","city":"Buckley","state":"WA","zip":"98321","country":"US","status":"Active","level":"6","years":"0","influencer":"","lat":47.1622483,"lng":-122.027746},{"id":"288171","name":"Melanie Mohr","email":"melanie.mohr@exprealty.com","email2":"melanie.mohr92@gmail.com","phone":"(916) 980-9307","city":"El Dorado Hills","state":"CA","zip":"95762","country":"US","status":"Active","level":"6","years":"0","influencer":"","lat":38.6561185,"lng":-121.0743265},{"id":"288160","name":"Jill Leinea Waash","email":"jill.waash@exprealty.com","email2":"jillwaash@gmail.com","phone":"(925) 301-6441","city":"Discovery Bay","state":"CA","zip":"94505","country":"US","status":"Active","level":"4","years":"0","influencer":"","lat":37.9042862,"lng":-121.602247},{"id":"288096","name":"Carina Ann Timmons","email":"carina.timmons@exprealty.com","email2":"carinatimmons@gmail.com","phone":"(469) 307-8242","city":"Meridian","state":"ID","zip":"83646","country":"US","status":"Active","level":"5","years":"0","influencer":"","lat":43.6086295,"lng":-116.392326},{"id":"288028","name":"Emily Jo Briske","email":"emily.briske@exprealty.com","email2":"emily.youngbloodrealty@gmail.com","phone":"(952) 693-5230","city":"Moore","state":"OK","zip":"73160","country":"US","status":"Active","level":"3","years":"0","influencer":"","lat":35.3383254,"lng":-97.4867045},{"id":"286434","name":"Amy Carolyn-Ebert Koh","email":"amy.koh@exprealty.com","email2":"amy@amykoh.realtor","phone":"(214) 298-2460","city":"Dallas","state":"TX","zip":"75231","country":"US","status":"Active","level":"3","years":"0","influencer":"","lat":32.7762719,"lng":-96.7968559},{"id":"286223","name":"Christopher John Della Maggiore","email":"christopher.dellamaggiore@exprealty.com","email2":"cdellama@yahoo.com","phone":"(209) 247-7311","city":"Davis","state":"CA","zip":"95618","country":"US","status":"Active","level":"4","years":"0","influencer":"","lat":38.5435526,"lng":-121.739005},{"id":"286143","name":"Ashley Abigail Gentles","email":"ashley.gentles@exprealty.com","email2":"ashleygentles77@gmail.com","phone":"(630) 207-7542","city":"Austell","state":"GA","zip":"30106","country":"US","status":"Active","level":"3","years":"0","influencer":"","lat":33.8126059,"lng":-84.6343783},{"id":"286055","name":"Ilona S Robbins","email":"ilona.robbins@exprealty.com","email2":"ilonamyrealtor@gmail.com","phone":"(774) 454-7180","city":"Manomet","state":"MA","zip":"2345","country":"US","status":"Active","level":"3","years":"0","influencer":"","lat":41.9154624,"lng":-70.5549427},{"id":"285930","name":"Tatsiana Crawford","email":"tanya.crawford@exprealty.com","email2":"mainerealestateexpert@gmail.com","phone":"(207) 655-9055","city":"Casco","state":"ME","zip":"4015","country":"US","status":"Active","level":"1","years":"0","influencer":"","lat":44.0060823,"lng":-70.5225313},{"id":"285878","name":"Brianna Marie Levitt","email":"brianna.levitt@exprealty.com","email2":"princesscheesehead@gmail.com","phone":"(801) 231-9166","city":"Bowling Green","state":"KY","zip":"42101","country":"US","status":"Active","level":"3","years":"0","influencer":"","lat":36.9929203,"lng":-86.4428677},{"id":"285872","name":"Salvador Fernando Rivas Hernandez","email":"salvador.rivashernandez@exprealty.com","email2":"salyour1stop.realestateshop@gmail.com","phone":"(781) 244-9744","city":"Lynn","state":"MA","zip":"1904","country":"US","status":"Active","level":"1","years":"0","influencer":"","lat":42.466763,"lng":-70.9494939},{"id":"285841","name":"Bryant Davignon","email":"bryant.davignon@exprealty.com","email2":"peewee116.bd@gmail.com","phone":"(508) 981-0958","city":"Marion","state":"MA","zip":"2738","country":"US","status":"Active","level":"3","years":"0","influencer":"","lat":43.1817295,"lng":-77.248616},{"id":"285671","name":"Sarah Jones","email":"sarah.jones.285671@exprealty.com","email2":"sljones9256@gmail.com","phone":"(901) 870-8971","city":"Atlanta","state":"GA","zip":"30318","country":"US","status":"Active","level":"3","years":"0","influencer":"","lat":33.7544657,"lng":-84.3898151},{"id":"285680","name":"Jessica Marie Maddern","email":"jessica.maddern@exprealty.com","email2":"jessica@maddernteam.com","phone":"(214) 608-6887","city":"Plano","state":"TX","zip":"75025","country":"US","status":"Active","level":"7","years":"0","influencer":"","lat":33.0136764,"lng":-96.6925096},{"id":"285649","name":"Lawrence Jay Levine","email":"lawrence.levine@exprealty.com","email2":"larry@maddernteam.com","phone":"(972) 365-5319","city":"Richardson","state":"TX","zip":"75080","country":"US","status":"Active","level":"8","years":"0","influencer":"","lat":32.9481789,"lng":-96.7297206},{"id":"285648","name":"Stephanie Feltus","email":"stephanie.feltus@exprealty.com","email2":"stephanie@maddernteam.com","phone":"(940) 595-5841","city":"Plano","state":"TX","zip":"75074","country":"US","status":"Active","level":"8","years":"0","influencer":"","lat":33.0136764,"lng":-96.6925096},{"id":"285647","name":"Heather Deann Taylor","email":"heather.d.taylor@exprealty.com","email2":"heather@maddernteam.com","phone":"(469) 261-3860","city":"Plano","state":"TX","zip":"75075","country":"US","status":"Active","level":"8","years":"0","influencer":"","lat":33.0136764,"lng":-96.6925096},{"id":"285646","name":"Bradley Jon Maddern","email":"bradley.maddern@exprealty.com","email2":"brad@maddernteam.com","phone":"(214) 509-8399","city":"Plano","state":"TX","zip":"75025","country":"US","status":"Active","level":"7","years":"0","influencer":"","lat":33.0136764,"lng":-96.6925096},{"id":"285431","name":"Jasmine Morais","email":"jasmine.morais@exprealty.com","email2":"jasminenmorais@gmail.com","phone":"(404) 940-9755","city":"Villa Rica","state":"GA","zip":"30180","country":"US","status":"Active","level":"3","years":"0","influencer":"","lat":33.732052,"lng":-84.9191081},{"id":"285461","name":"Aundrea Swaner","email":"aundrea.swaner@exprealty.com","email2":"aundrea.swaner@gmail.com","phone":"(435) 491-0408","city":"Loa","state":"UT","zip":"84747","country":"US","status":"Active","level":"3","years":"0","influencer":"","lat":38.4027571,"lng":-111.642962},{"id":"285427","name":"Merissa Tara McCullugh","email":"merissa.mccullugh@exprealty.com","email2":"merissamccullugh1@gmail.com","phone":"(541) 505-2198","city":"Queen Creek","state":"AZ","zip":"85142","country":"US","status":"Active","level":"3","years":"0","influencer":"","lat":33.2483858,"lng":-111.634158},{"id":"285452","name":"Stacy Simpson","email":"stacy.simpson@exprealty.com","email2":"stacyssimpson@yahoo.com","phone":"(586) 718-9431","city":"Macomb","state":"MI","zip":"48044","country":"US","status":"Active","level":"1","years":"0","influencer":"","lat":42.6741189,"lng":-82.902901},{"id":"285279","name":"Tonya Funsch","email":"tonya.funsch@exprealty.com","email2":"tonyafunsch@gmail.com","phone":"(941) 301-0471","city":"Palmetto","state":"FL","zip":"34221","country":"US","status":"Active","level":"4","years":"0","influencer":"","lat":27.5214269,"lng":-82.5723193},{"id":"285228","name":"Lynette Rogers","email":"lynette.rogers@exprealty.com","email2":"lynetterogersre@gmail.com","phone":"(281) 382-9797","city":"Tacoma","state":"WA","zip":"98405","country":"US","status":"Active","level":"4","years":"0","influencer":"","lat":47.2455013,"lng":-122.438329},{"id":"285163","name":"Brittney Owens","email":"brittney.owens@exprealty.com","email2":"b_owens1990@yahoo.com","phone":"(352) 441-0277","city":"Dunnellon","state":"FL","zip":"34432","country":"US","status":"Active","level":"4","years":"0","influencer":"","lat":29.0491426,"lng":-82.4609331},{"id":"285135","name":"Ruby Adelle Bynum","email":"ruby.bynum@exprealty.com","email2":"ruby-bynum@hotmail.com","phone":"(509) 808-1955","city":"Newman Lake","state":"WA","zip":"99025","country":"US","status":"Active","level":"6","years":"0","influencer":"","lat":47.7241586,"lng":-117.0689244},{"id":"285009","name":"Holly Thomas","email":"holly.thomas@exprealty.com","email2":"hollythomasrealty@gmail.com","phone":"(586) 944-6965","city":"Warren","state":"MI","zip":"48091","country":"US","status":"Active","level":"1","years":"0","influencer":"","lat":42.4932575,"lng":-83.0062746},{"id":"284998","name":"Shundra M Cannon","email":"shundra.cannon@exprealty.com","email2":"shundracannon@gmail.com","phone":"(832) 724-2260","city":"Pompano Beach","state":"FL","zip":"33062","country":"US","status":"Active","level":"1","years":"0","influencer":"","lat":26.2378597,"lng":-80.1247667},{"id":"284544","name":"James Brian Vrooman","email":"james.vrooman@exprealty.com","email2":"jamesvroomanrealtor@gmail.com","phone":"(603) 247-0506","city":"East Falmouth","state":"MA","zip":"2536","country":"US","status":"Active","level":"4","years":"0","influencer":"","lat":41.5786678,"lng":-70.5587024},{"id":"284976","name":"Alison Ann Clayton","email":"alison.clayton@exprealty.com","email2":"ali@claytoncoaz.com","phone":"(480) 698-1357","city":"Mesa","state":"AZ","zip":"85212","country":"US","status":"Active","level":"2","years":"0","influencer":"","lat":33.3058821,"lng":-111.6529408},{"id":"284946","name":"Freshta Heydari","email":"freshta.heydari@exprealty.com","email2":"heydari.fera01@gmail.com","phone":"(949) 993-7766","city":"Ladera Ranch","state":"CA","zip":"92694","country":"US","status":"Active","level":"3","years":"0","influencer":"","lat":33.5520801,"lng":-117.6384556},{"id":"284934","name":"Jorge Alvarez Ramirez","email":"jorge.alvarezramirez@exprealty.com","email2":"34jorge34@gmail.com","phone":"(734) 795-0262","city":"Westland","state":"MI","zip":"48186","country":"US","status":"Active","level":"3","years":"0","influencer":"","lat":42.3238056,"lng":-83.4005321},{"id":"284885","name":"Michaela Gonzales","email":"michaela.gonzales@exprealty.com","email2":"michaela.gonzales_88@outlook.com","phone":"(509) 439-7678","city":"Yakima","state":"WA","zip":"98902","country":"US","status":"Active","level":"6","years":"0","influencer":"","lat":46.601557,"lng":-120.510842},{"id":"284891","name":"Anaixa Morales","email":"anaixa.morales@exprealty.com","email2":"anaixa.morales@gmail.com","phone":"(813) 608-2127","city":"Wimauma","state":"FL","zip":"33598","country":"US","status":"Active","level":"3","years":"0","influencer":"","lat":27.7125308,"lng":-82.2989803},{"id":"284776","name":"Virginia Stokes","email":"virginia.stokes.284776@exprealty.com","email2":"virginiastokes01@gmail.com","phone":"(361) 633-3689","city":"Lansing","state":"MI","zip":"48912","country":"US","status":"Active","level":"2","years":"0","influencer":"","lat":42.7338254,"lng":-84.5546295},{"id":"284762","name":"Amy Zamiara","email":"amy.zamiara@exprealty.com","email2":"amyzamiara@gmail.com","phone":"(508) 505-8351","city":"South Easton","state":"MA","zip":"2375","country":"US","status":"Active","level":"6","years":"0","influencer":"","lat":34.7730825,"lng":-87.6691665},{"id":"284594","name":"Rocco Chilelli","email":"rocco.chilelli@exprealty.com","email2":"chilellirocco@gmail.com","phone":"(516) 316-3667","city":"Oceanside","state":"NY","zip":"11572","country":"US","status":"Active","level":"2","years":"0","influencer":"","lat":40.6390936,"lng":-73.6399765},{"id":"284468","name":"Janki Thakkar LLC","email":"janki.thakkar@exprealty.com","email2":"realtorjanki@gmail.com","phone":"(321) 368-9623","city":"Winter Park","state":"FL","zip":"32792","country":"US","status":"Active","level":"7","years":"0","influencer":"","lat":28.5977707,"lng":-81.3510264},{"id":"284436","name":"Tara McKinnon","email":"tara.mckinnon@exprealty.com","email2":"tmckinnon03@yahoo.com","phone":"(602) 399-9710","city":"Surprise","state":"AZ","zip":"85374","country":"US","status":"Active","level":"3","years":"0","influencer":"","lat":33.629247,"lng":-112.3681428},{"id":"284400","name":"Amy Singh","email":"amy.singh@exprealty.com","email2":"amysingh.ga@gmail.com","phone":"(415) 216-9919","city":"Lawrenceville","state":"GA","zip":"30043","country":"US","status":"Active","level":"3","years":"0","influencer":"","lat":33.9566391,"lng":-83.9890066},{"id":"284389","name":"Aleksandr Khanimov","email":"aleksandr.khanimov@exprealty.com","email2":"alex.premiumagent@gmail.com","phone":"(347) 395-7001","city":"Oviedo","state":"FL","zip":"32765","country":"US","status":"Active","level":"6","years":"0","influencer":"","lat":28.6702526,"lng":-81.2084941},{"id":"284410","name":"Amanda Christine Esparza","email":"amanda.esparza@exprealty.com","email2":"justsoldbyamanda@gmail.com","phone":"(805) 405-2899","city":"Lompoc","state":"CA","zip":"93436","country":"US","status":"Active","level":"3","years":"0","influencer":"","lat":34.6391501,"lng":-120.4579009},{"id":"284363","name":"Vanessa Suarez Faulk","email":"vanessa.faulk@exprealty.com","email2":"vanessa@vfaulkrealestate.com","phone":"(727) 742-2358","city":"Huntersville","state":"NC","zip":"28078","country":"US","status":"Active","level":"6","years":"0","influencer":"","lat":35.4108278,"lng":-80.8429304},{"id":"284330","name":"Kendra Harrington","email":"kendra.harrington@exprealty.com","email2":"kkharrington22@gmail.com","phone":"(253) 722-3139","city":"Bonney Lake","state":"WA","zip":"98391","country":"US","status":"Active","level":"4","years":"0","influencer":"","lat":47.1870191,"lng":-122.1702293},{"id":"284316","name":"Yesenia Brito Perez","email":"yesenia.britoperez@exprealty.com","email2":"yeseniabrito94@gmail.com","phone":"(401) 241-1493","city":"Coventry","state":"RI","zip":"2816","country":"US","status":"Active","level":"5","years":"0","influencer":"","lat":41.7011108,"lng":-71.5925333},{"id":"284247","name":"Rachel Ann Bolstad","email":"rachel.bolstad@exprealty.com","email2":"homesbyrachelbolstad@gmail.com","phone":"(425) 418-8690","city":"Snohomish","state":"WA","zip":"98290","country":"US","status":"Active","level":"7","years":"0","influencer":"","lat":47.9113592,"lng":-122.0955144},{"id":"284120","name":"Trisa Lynn Gray","email":"trisa.gray@expreferral.com","email2":"trisa.exprealty@gmail.com","phone":"(925) 493-1861","city":"Horseshoe Bend","state":"AR","zip":"72512","country":"US","status":"Active","level":"1","years":"0","influencer":"","lat":36.2200685,"lng":-91.7474413},{"id":"284058","name":"Heidi Mendez","email":"heidi.mendez@exprealty.com","email2":"heidimendezut@gmail.com","phone":"(425) 949-9628","city":"Clinton","state":"UT","zip":"84015","country":"US","status":"Active","level":"7","years":"0","influencer":"","lat":41.1471616,"lng":-112.0548389},{"id":"283784","name":"Ana Elisa Novaski Paro","email":"anaelisa.paro@exprealty.com","email2":"anaparorealtor@gmail.com","phone":"(919) 450-8926","city":"Hope Mills","state":"NC","zip":"28348","country":"US","status":"Active","level":"1","years":"0","influencer":"","lat":34.9704419,"lng":-78.9453056},{"id":"283732","name":"Laurie Rivera Robles","email":"laurie.riverarobles@exprealty.com","email2":"riverarobleshomes@gmail.com","phone":"(813) 766-3941","city":"Ruskin","state":"FL","zip":"33570","country":"US","status":"Active","level":"3","years":"0","influencer":"","lat":27.7206448,"lng":-82.4340374},{"id":"283649","name":"Lynnea Bruins","email":"lynnea.bruins@exprealty.com","email2":"lynnea.m.bruins@gmail.com","phone":"(973) 534-3531","city":"Wayne","state":"NJ","zip":"7470","country":"US","status":"Active","level":"3","years":"0","influencer":"","lat":40.9491723,"lng":-74.2376802},{"id":"283596","name":"Kerry Mercier","email":"kerry.mercier@exprealty.com","email2":"kerrymercierrealestate@gmail.com","phone":"(352) 470-8369","city":"Candler","state":"FL","zip":"32111","country":"US","status":"Active","level":"4","years":"0","influencer":"","lat":29.0713692,"lng":-81.9681409},{"id":"283438","name":"Megan J Herzer","email":"megan.herzer@exprealty.com","email2":"megan.herzer@gmail.com","phone":"(509) 288-0100","city":"Nine Mile Falls","state":"WA","zip":"99026","country":"US","status":"Active","level":"6","years":"0","influencer":"","lat":47.7767798,"lng":-117.5466863},{"id":"283440","name":"Chelsey Marie Wallace","email":"chelsey.wallace@exprealty.com","email2":"chelsey.wallace28@gmail.com","phone":"(720) 601-4226","city":"Lexington","state":"KY","zip":"40514","country":"US","status":"Active","level":"2","years":"0","influencer":"","lat":38.0464066,"lng":-84.4970393},{"id":"283427","name":"Erin Kahnis","email":"erin.kahnis@exprealty.com","email2":"tigerdesignrealty@gmail.com","phone":"(631) 708-4793","city":"Rocky Point","state":"NY","zip":"11778","country":"US","status":"Active","level":"2","years":"0","influencer":"","lat":40.9525987,"lng":-72.9253805},{"id":"283339","name":"Naomi Hernandez","email":"naomi.hernandez.co@exprealty.com","email2":"naomi.her3650@gmail.com","phone":"(970) 793-7799","city":"Greeley","state":"CO","zip":"80634","country":"US","status":"Active","level":"3","years":"0","influencer":"","lat":40.4233142,"lng":-104.7091322},{"id":"283234","name":"James Roy Worley Jr","email":"james.worley@exprealty.com","email2":"jrworley24@outlook.com","phone":"(919) 522-2348","city":"Princeton","state":"NC","zip":"27569","country":"US","status":"Active","level":"3","years":"0","influencer":"","lat":35.4659942,"lng":-78.1605497},{"id":"283253","name":"Meghan Reilly Ruivo","email":"meghan.ruivo@exprealty.com","email2":"meg@megruivorealestate.com","phone":"(401) 529-1303","city":"Plymouth","state":"MA","zip":"2360","country":"US","status":"Active","level":"5","years":"0","influencer":"","lat":41.9583799,"lng":-70.6673851},{"id":"283210","name":"Annjanette Mack","email":"aj.mack@exprealty.com","email2":"ajmacksellshomes@gmail.com","phone":"(623) 332-0406","city":"Phoenix","state":"AZ","zip":"85022","country":"US","status":"Active","level":"3","years":"0","influencer":"","lat":33.6333489,"lng":-112.0659232},{"id":"283090","name":"Lee Cozza","email":"lee.cozza@exprealty.com","email2":"lee_cozza@yahoo.com","phone":"(509) 599-4028","city":"Spokane","state":"WA","zip":"99223","country":"US","status":"Active","level":"5","years":"0","influencer":"","lat":47.6571934,"lng":-117.42351},{"id":"283082","name":"Gagandeep Mallatt","email":"gagandeep.mallatt@exprealty.com","email2":"gigimallatt@gmail.com","phone":"(510) 364-8939","city":"Rocklin","state":"CA","zip":"95765","country":"US","status":"Active","level":"5","years":"0","influencer":"","lat":38.7907339,"lng":-121.2357828},{"id":"282921","name":"Austin Vaughn Woods","email":"austin.v.woods@exprealty.com","email2":"ozwood93@gmail.com","phone":"(509) 723-3868","city":"Newport","state":"WA","zip":"99156","country":"US","status":"Active","level":"7","years":"0","influencer":"","lat":48.1796277,"lng":-117.043258},{"id":"282918","name":"Julie Dawn Herrmann","email":"julie.herrmann@exprealty.com","email2":"julieteamherrmann@gmail.com","phone":"(360) 900-7092","city":"Cheney","state":"WA","zip":"99004","country":"US","status":"Active","level":"7","years":"0","influencer":"","lat":47.4892246,"lng":-117.579304},{"id":"282922","name":"Anthony Ray Anderson","email":"anthony.anderson@exprealty.com","email2":"anthonyrealtortn@gmail.com","phone":"(865) 298-2246","city":"Oak Ridge","state":"TN","zip":"37830","country":"US","status":"Active","level":"3","years":"0","influencer":"","lat":36.0103562,"lng":-84.2696449},{"id":"282890","name":"Rebecca Ann Fleming","email":"becky.fleming@exprealty.com","email2":"beckyflemingrealestate@gmail.com","phone":"(843) 263-6192","city":"Provo","state":"UT","zip":"84604","country":"US","status":"Active","level":"5","years":"0","influencer":"","lat":40.2337289,"lng":-111.6587085},{"id":"282912","name":"Kara Obrien","email":"kara.obrien@exprealty.com","email2":"thekaraobrien@gmail.com","phone":"(631) 664-6611","city":"Islip","state":"NY","zip":"11751","country":"US","status":"Active","level":"2","years":"0","influencer":"","lat":40.7300685,"lng":-73.2107266},{"id":"282860","name":"Daniel Gossett","email":"dan.gossett@exprealty.com","email2":"dan@dangossett.com","phone":"(916) 836-5326","city":"Orangevale","state":"CA","zip":"95662","country":"US","status":"Active","level":"4","years":"0","influencer":"","lat":38.6785145,"lng":-121.2257818},{"id":"282795","name":"Jillian Patricia Loudermilk","email":"jillian.loudermilk@exprealty.com","email2":"loudermilkjillian@gmail.com","phone":"(941) 705-7640","city":"Bradenton","state":"FL","zip":"34209","country":"US","status":"Active","level":"5","years":"0","influencer":"","lat":27.4989278,"lng":-82.5748194},{"id":"282769","name":"Ashley Nicole Hite","email":"ashley.hite@exprealty.com","email2":"ashley@uplitmarketing.com","phone":"(360) 990-0009","city":"Nine Mile Falls","state":"WA","zip":"99026","country":"US","status":"Active","level":"5","years":"0","influencer":"","lat":47.7767798,"lng":-117.5466863},{"id":"282741","name":"Michelle Smith","email":"michelle.y.smith@exprealty.com","email2":"michellesellswithexit@gmail.com","phone":"(630) 433-6744","city":"Woodridge","state":"IL","zip":"60517","country":"US","status":"Active","level":"4","years":"0","influencer":"","lat":41.7563344,"lng":-88.045559},{"id":"282756","name":"Danna Preciado Vela","email":"danna.vela@exprealty.com","email2":"realtordanna.pv@gmail.com","phone":"(262) 266-0944","city":"Oconomowoc","state":"WI","zip":"53066","country":"US","status":"Active","level":"4","years":"0","influencer":"","lat":43.1116731,"lng":-88.4992659},{"id":"282625","name":"Viridiana Guadalupe Mejia Aguilar","email":"viridianaguadalupe.mejiaaguilar@exprealty.com","email2":"vglowup94@gmail.com","phone":"(916) 513-0851","city":"Elk Grove","state":"CA","zip":"95758","country":"US","status":"Active","level":"4","years":"0","influencer":"","lat":38.4087993,"lng":-121.3716178},{"id":"282480","name":"Quentin Lee Amundson","email":"quentin.amundson@exprealty.com","email2":"q@wereinspired.com","phone":"(808) 756-4060","city":"Winter Park","state":"FL","zip":"32789","country":"US","status":"Active","level":"4","years":"0","influencer":"","lat":28.5977707,"lng":-81.3510264},{"id":"282439","name":"Jennifer Nyx","email":"jennifer.nyx@exprealty.com","email2":"jennifernyxrealtor@gmail.com","phone":"(631) 813-6100","city":"Port Jefferson Station","state":"NY","zip":"11776","country":"US","status":"Active","level":"1","years":"0","influencer":"Builders","lat":40.925939,"lng":-73.065185},{"id":"282388","name":"Cayla Jordan Verrett","email":"cayla.verrett@exprealty.com","email2":"creamysbycaylajordan@gmail.com","phone":"(916) 501-3845","city":"El Dorado Hills","state":"CA","zip":"95762","country":"US","status":"Active","level":"5","years":"0","influencer":"","lat":38.6561185,"lng":-121.0743265},{"id":"282316","name":"Chad Owen Jett","email":"chad.jett@exprealty.com","email2":"cojett@live.com","phone":"(765) 346-4466","city":"Paducah","state":"KY","zip":"42001","country":"US","status":"Active","level":"4","years":"0","influencer":"","lat":37.0833893,"lng":-88.6000478},{"id":"282222","name":"Savanna Christine Amundson","email":"savanna.amundson@exprealty.com","email2":"chrissy@wereinspired.com","phone":"(305) 521-8874","city":"Winter Park","state":"FL","zip":"32789","country":"US","status":"Active","level":"3","years":"0","influencer":"","lat":28.5977707,"lng":-81.3510264},{"id":"282287","name":"Nicholas Joseph Nolan","email":"nicholas.nolan@exprealty.com","email2":"nicknolanrealtor@gmail.com","phone":"(818) 618-6211","city":"Paso Robles","state":"CA","zip":"93446","country":"US","status":"Active","level":"4","years":"0","influencer":"","lat":35.6262618,"lng":-120.6901319},{"id":"282202","name":"Austin James Rankin","email":"austin.rankin@exprealty.com","email2":"austin@austinrankin.com","phone":"(727) 242-3357","city":"Clearwater","state":"FL","zip":"33756","country":"US","status":"Active","level":"2","years":"0","influencer":"","lat":27.9658533,"lng":-82.8001026},{"id":"282182","name":"Haley Powell Smallwood","email":"haley.smallwood@exprealty.com","email2":"hpsmallwood@gmail.com","phone":"(706) 244-9792","city":"Appling","state":"GA","zip":"30802","country":"US","status":"Active","level":"6","years":"0","influencer":"","lat":33.5459683,"lng":-82.3159572},{"id":"282148","name":"Jonathan Mark Thomas","email":"jonathan.m.thomas@exprealty.com","email2":"jt@jonathanthomashomes.com","phone":"(720) 990-7029","city":"Golden","state":"CO","zip":"80403","country":"US","status":"Active","level":"3","years":"0","influencer":"","lat":39.7546349,"lng":-105.22058},{"id":"282086","name":"Sarah Ahn","email":"sarah.ahn@exprealty.com","email2":"sahnrealty@gmail.com","phone":"(978) 771-1899","city":"Mansfield","state":"MA","zip":"2048","country":"US","status":"Active","level":"3","years":"0","influencer":"","lat":32.0215388,"lng":-93.7135453},{"id":"282072","name":"Barbara Ann Morrocco","email":"barbara.morrocco@exprealty.com","email2":"barbara@morrocco.com","phone":"(443) 472-3146","city":"Saint Petersburg","state":"FL","zip":"33701","country":"US","status":"Active","level":"2","years":"0","influencer":"","lat":27.7712264,"lng":-82.6340259},{"id":"282006","name":"Rien Noelle Torres","email":"rien.torres@exprealty.com","email2":"rient7@icloud.com","phone":"(530) 906-5565","city":"Auburn","state":"CA","zip":"95602","country":"US","status":"Active","level":"3","years":"0","influencer":"","lat":38.8945939,"lng":-121.0739897},{"id":"281989","name":"Marco Moises Tuaty","email":"marco.tuaty@exprealty.com","email2":"marco@marcotuaty.com","phone":"(305) 904-9789","city":"Orlando","state":"FL","zip":"32801","country":"US","status":"Active","level":"7","years":"0","influencer":"","lat":28.5421218,"lng":-81.379045},{"id":"281899","name":"Dawn Kristi Royals","email":"dawn.royals@exprealty.com","email2":"royalsdawn@gmail.com","phone":"(352) 537-9588","city":"belleview","state":"FL","zip":"34420","country":"US","status":"Active","level":"4","years":"0","influencer":"","lat":29.0625783,"lng":-82.0495108},{"id":"281860","name":"Ariadna Mendoza Plascencia LLC","email":"ari.mendoza@exprealty.com","email2":"ariadnalmp@gmail.com","phone":"(727) 723-4837","city":"Saint Petersburg","state":"FL","zip":"33713","country":"US","status":"Active","level":"3","years":"0","influencer":"","lat":27.7712264,"lng":-82.6340259},{"id":"281839","name":"Catalina Munoz","email":"catalina.munoz@exprealty.com","email2":"25catalinam@gmail.com","phone":"(530) 848-9439","city":"Woodland","state":"CA","zip":"95776","country":"US","status":"Active","level":"4","years":"0","influencer":"","lat":38.6786109,"lng":-121.7733285},{"id":"281751","name":"Lori Ann Ortiz","email":"lori.ortiz@exprealty.com","email2":"moveswithlori@gmail.com","phone":"(616) 915-5115","city":"Ypsilanti","state":"MI","zip":"48197","country":"US","status":"Active","level":"3","years":"0","influencer":"","lat":42.241051,"lng":-83.6117646},{"id":"281312","name":"Susan A Thomas","email":"susan.thomas@exprealty.com","email2":"winningizahabit@gmail.com","phone":"(754) 368-1644","city":"Naples","state":"FL","zip":"34120","country":"US","status":"Active","level":"1","years":"0","influencer":"","lat":26.1421976,"lng":-81.7942944},{"id":"281569","name":"Chana Schwartz","email":"chana.schwartz@exprealty.com","email2":"chanas.properties@gmail.com","phone":"(201) 774-4487","city":"Teaneck","state":"NJ","zip":"7666","country":"US","status":"Active","level":"2","years":"0","influencer":"","lat":40.8860164,"lng":-74.0072568},{"id":"281560","name":"Raushanah S Keys","email":"raushanah.keys@exprealty.com","email2":"shanah@jhgcincy.com","phone":"(513) 616-1497","city":"Cleves","state":"OH","zip":"45002","country":"US","status":"Active","level":"3","years":"0","influencer":"","lat":39.162299,"lng":-84.7491723},{"id":"281306","name":"Linda Marin","email":"linda.marin@exprealty.com","email2":"linda.marin8@gmail.com","phone":"(361) 429-2520","city":"Corpus Christi","state":"TX","zip":"78411","country":"US","status":"Active","level":"3","years":"0","influencer":"","lat":27.7635302,"lng":-97.4033191},{"id":"281326","name":"Justin Michael Roberts","email":"justin.roberts@exprealty.com","email2":"justinroberts760@gmail.com","phone":"(760) 218-7715","city":"Indio","state":"CA","zip":"92201","country":"US","status":"Active","level":"7","years":"0","influencer":"","lat":33.7192808,"lng":-116.2188054},{"id":"281297","name":"Holly M Reed","email":"holly.m.reed@exprealty.com","email2":"rightsizewithholly@gmail.com","phone":"(971) 678-3549","city":"Airway Heights","state":"WA","zip":"99001","country":"US","status":"Active","level":"2","years":"0","influencer":"","lat":47.644611,"lng":-117.593272},{"id":"281196","name":"Linsey Durham","email":"linsey.durham@exprealty.com","email2":"therealdeal98466@gmail.com","phone":"(253) 279-1316","city":"University Place","state":"WA","zip":"98466","country":"US","status":"Active","level":"4","years":"0","influencer":"","lat":47.2258172,"lng":-122.5371325},{"id":"281155","name":"Katie E Owens","email":"katie.owens.tn@exprealty.com","email2":"katiesells423@gmail.com","phone":"(865) 919-7547","city":"Jonesborough","state":"TN","zip":"37659","country":"US","status":"Active","level":"5","years":"0","influencer":"","lat":36.2944928,"lng":-82.4734089},{"id":"281095","name":"Claudia Cristina Fuentes","email":"claudia.fuentes@expcommercial.com","email2":"claudiaf.realestate@gmail.com","phone":"(281) 686-2697","city":"Cypress","state":"TX","zip":"77433","country":"US","status":"Active","level":"1","years":"0","influencer":"","lat":29.9691116,"lng":-95.6971686},{"id":"280976","name":"Solize Smit Van Der Merwe","email":"solize.smitvandermerwe@exprealty.com","email2":"n600cm@aol.com","phone":"(509) 697-3252","city":"Traverse City","state":"MI","zip":"49686","country":"US","status":"Active","level":"2","years":"0","influencer":"","lat":44.7606481,"lng":-85.6165976},{"id":"280891","name":"Amanda Metcalf","email":"amanda.metcalf.280891@exprealty.com","email2":"amandametcalf.realtor@gmail.com","phone":"(321) 978-8402","city":"Windermere","state":"FL","zip":"34786","country":"US","status":"Active","level":"6","years":"0","influencer":"","lat":28.4944695,"lng":-81.5345547},{"id":"280882","name":"Luz Estrella Colon PA","email":"luzestrella.colon@exprealty.com","email2":"luzaroundthebay@gmail.com","phone":"(813) 846-6379","city":"Brandon","state":"FL","zip":"33511","country":"US","status":"Active","level":"2","years":"0","influencer":"","lat":27.937801,"lng":-82.2859247},{"id":"280787","name":"Anna Sophia Young","email":"anna.young@exprealty.com","email2":"anna@trulivingroup.com","phone":"(810) 626-8797","city":"Howell","state":"MI","zip":"48843","country":"US","status":"Active","level":"3","years":"0","influencer":"","lat":42.6072552,"lng":-83.9293952},{"id":"280747","name":"Jedrek Preciado Vela","email":"jedrek.preciadovela@exprealty.com","email2":"jedrekvela@gmail.com","phone":"(262) 893-3640","city":"Oconomowoc","state":"WI","zip":"53066","country":"US","status":"Active","level":"3","years":"0","influencer":"","lat":43.1116731,"lng":-88.4992659},{"id":"280672","name":"Maria Adriana Hernandez-Garcia","email":"maria.hernandez-garcia@exprealty.com","email2":"mariahg34146@gmail.com","phone":"(313) 399-3923","city":"Allen Park","state":"MI","zip":"48101","country":"US","status":"Active","level":"3","years":"0","influencer":"","lat":42.2595071,"lng":-83.2107671},{"id":"280635","name":"Daniela Tolle","email":"daniela.tolle@exprealty.com","email2":"dtrealtor16@gmail.com","phone":"(508) 648-6552","city":"East Falmouth","state":"MA","zip":"2536","country":"US","status":"Active","level":"3","years":"0","influencer":"","lat":41.5786678,"lng":-70.5587024},{"id":"280466","name":"Tim Angevine","email":"tim.angevine@exprealty.com","email2":"tim@mcinturffandco.com","phone":"(253) 878-2662","city":"Spokane","state":"WA","zip":"99208","country":"US","status":"Active","level":"5","years":"0","influencer":"","lat":47.6571934,"lng":-117.42351},{"id":"280569","name":"Robert Solomon Wright Case","email":"robert.case@exprealty.com","email2":"howtosellandbuyhomes@gmail.com","phone":"(508) 922-5235","city":"Bourne","state":"MA","zip":"2532","country":"US","status":"Active","level":"5","years":"0","influencer":"","lat":41.746607,"lng":-70.6201259},{"id":"280474","name":"Pedro Quiroz Jr","email":"pedro.quiroz@exprealty.com","email2":"pedroqrealtor@gmail.com","phone":"(313) 492-9037","city":"Taylor","state":"MI","zip":"48180","country":"US","status":"Active","level":"2","years":"0","influencer":"","lat":42.240872,"lng":-83.2696509},{"id":"280386","name":"Elizabeth Ann Fischer","email":"elizabeth.fischer@exprealty.com","email2":"lizfischer012@gmail.com","phone":"(943) 270-4509","city":"Lawrenceville","state":"GA","zip":"30045","country":"US","status":"Active","level":"3","years":"0","influencer":"","lat":33.9566391,"lng":-83.9890066},{"id":"280348","name":"Aries Escobar","email":"aries.escobar@exprealty.com","email2":"ariesescobar91@live.com","phone":"(734) 262-6383","city":"Romulus","state":"MI","zip":"48174","country":"US","status":"Active","level":"4","years":"0","influencer":"","lat":42.2222614,"lng":-83.3965995},{"id":"280163","name":"Frank David Miller","email":"frank.miller@exprealty.com","email2":"millerf228@gmail.com","phone":"(313) 721-8621","city":"Detroit","state":"MI","zip":"48226","country":"US","status":"Active","level":"2","years":"0","influencer":"","lat":42.3315509,"lng":-83.0466403},{"id":"280067","name":"Krista Leonard","email":"krista.leonard@exprealty.com","email2":"leonard.krista43@gmail.com","phone":"(509) 939-5771","city":"Spokane","state":"WA","zip":"99212","country":"US","status":"Active","level":"4","years":"0","influencer":"","lat":47.6571934,"lng":-117.42351},{"id":"280001","name":"Stephen Denny","email":"stephen.denny@exprealty.com","email2":"sdenny.cfl@gmail.com","phone":"(321) 276-6126","city":"Orlando","state":"FL","zip":"32804","country":"US","status":"Active","level":"4","years":"0","influencer":"","lat":28.5421218,"lng":-81.379045},{"id":"279914","name":"Anne Hall","email":"anne.hall@exprealty.com","email2":"annehallrealestate@gmail.com","phone":"(503) 957-6218","city":"Portland","state":"OR","zip":"97216","country":"US","status":"Active","level":"4","years":"0","influencer":"","lat":45.5202471,"lng":-122.674194},{"id":"279851","name":"Stephanie Powers","email":"stephanie.powers@exprealty.com","email2":"sapowers02@gmail.com","phone":"(509) 863-3454","city":"Liberty Lake","state":"WA","zip":"99019","country":"US","status":"Active","level":"7","years":"0","influencer":"","lat":47.6681145,"lng":-117.104865},{"id":"279790","name":"Octavia Denise Scott","email":"octavia.scott@expreferral.com","email2":"octaviadenises@gmail.com","phone":"(940) 205-9507","city":"Denton","state":"TX","zip":"76209","country":"US","status":"Active","level":"5","years":"0","influencer":"","lat":33.215038,"lng":-97.1330431},{"id":"279766","name":"Sarah Elizabeth Kaetterhenry","email":"sarah.kaetterhenry@exprealty.com","email2":"sarah.legacygroup@gmail.com","phone":"(920) 569-9560","city":"Plover","state":"WI","zip":"54467","country":"US","status":"Active","level":"5","years":"0","influencer":"","lat":44.4563579,"lng":-89.544007},{"id":"279769","name":"Phaula Koriny Scott","email":"phaula.scott@exprealty.com","email2":"phaula.scott@icloud.com","phone":"(602) 616-2118","city":"Surprise","state":"AZ","zip":"85388","country":"US","status":"Active","level":"2","years":"0","influencer":"","lat":33.629247,"lng":-112.3681428},{"id":"279677","name":"Logan S Sharkey","email":"logan.sharkey@exprealty.com","email2":"logan@amymaynardgroup.com","phone":"(903) 450-6011","city":"Rockwall","state":"TX","zip":"75087","country":"US","status":"Active","level":"7","years":"0","influencer":"","lat":32.8923464,"lng":-96.4066987},{"id":"279610","name":"Courtney Thonsgaard Prenzler","email":"courtney.prenzler@exprealty.com","email2":"courtneyprenzler.realtor@gmail.com","phone":"(979) 637-0331","city":"Burton","state":"TX","zip":"77835","country":"US","status":"Active","level":"7","years":"0","influencer":"","lat":30.1821602,"lng":-96.5955277},{"id":"279577","name":"Kari Higginbotham","email":"kari.higginbotham@exprealty.com","email2":"karihigginbotham3@gmail.com","phone":"(208) 661-9689","city":"Boise","state":"ID","zip":"83714","country":"US","status":"Active","level":"5","years":"0","influencer":"","lat":43.6166163,"lng":-116.200886},{"id":"279545","name":"Olga Halkina","email":"olga.halkina@exprealty.com","email2":"olgasellshomes1@gmail.com","phone":"(720) 467-0990","city":"Greenwood Village","state":"CO","zip":"80111","country":"US","status":"Active","level":"4","years":"0","influencer":"","lat":39.6172101,"lng":-104.950814},{"id":"279547","name":"Dillan Raymond Juul","email":"dillan.juul@exprealty.com","email2":"dillanjuul@gmail.com","phone":"(571) 335-9937","city":"Spring","state":"TX","zip":"77389","country":"US","status":"Active","level":"4","years":"0","influencer":"","lat":30.0795707,"lng":-95.4187924},{"id":"279539","name":"Britt Gustafson","email":"britt.gustafson@exprealty.com","email2":"britt.gustafson@me.com","phone":"(310) 880-4899","city":"Palm Beach Gardens","state":"FL","zip":"33410","country":"US","status":"Active","level":"3","years":"0","influencer":"","lat":26.8233946,"lng":-80.1386547},{"id":"279512","name":"Joel M McClellan","email":"joel.mcclellan@exprealty.com","email2":"jmcclellan1513@gmail.com","phone":"(352) 356-3469","city":"Trenton","state":"FL","zip":"32693","country":"US","status":"Active","level":"4","years":"0","influencer":"","lat":29.6132942,"lng":-82.8176203},{"id":"279489","name":"Amanda Harper","email":"amanda.harper@expreferral.com","email2":"mplusw9.17@gmail.com","phone":"(314) 315-5641","city":"Saint Louis","state":"MO","zip":"63122","country":"US","status":"Active","level":"7","years":"0","influencer":"","lat":38.6254063,"lng":-90.190009},{"id":"279469","name":"Jonah Lucas Martin","email":"jonah.martin@expreferral.com","email2":"jonahmaraqua@hotmail.com","phone":"(407) 758-6775","city":"Orlando","state":"FL","zip":"32804","country":"US","status":"Active","level":"3","years":"0","influencer":"","lat":28.5421218,"lng":-81.379045},{"id":"279427","name":"Dalvir Kaur","email":"dalvir.kaur@exprealty.com","email2":"dalvirkrealtor@gmail.com","phone":"(916) 505-2705","city":"Rancho Cordova","state":"CA","zip":"95742","country":"US","status":"Active","level":"4","years":"0","influencer":"","lat":38.5890723,"lng":-121.302728},{"id":"279337","name":"Amy Elizabeth Maynard","email":"amy.maynard@exprealty.com","email2":"amy@amymaynardgroup.com","phone":"(214) 517-6622","city":"Rockwall","state":"TX","zip":"75087","country":"US","status":"Active","level":"6","years":"0","influencer":"Builders","lat":32.8923464,"lng":-96.4066987},{"id":"279305","name":"Amanda Lauren Brandt","email":"amanda.l.brandt@exprealty.com","email2":"amandabrandthomes@gmail.com","phone":"(636) 248-5646","city":"Chesterfield","state":"MO","zip":"63017","country":"US","status":"Active","level":"7","years":"0","influencer":"","lat":38.6581764,"lng":-90.5680617},{"id":"279306","name":"Breanna Kofron","email":"breanna.kofron@exprealty.com","email2":"breanna.kofron137@gmail.com","phone":"(270) 709-4830","city":"Paducah","state":"KY","zip":"42001","country":"US","status":"Active","level":"5","years":"0","influencer":"","lat":37.0833893,"lng":-88.6000478},{"id":"279240","name":"Daniel Guy Evans II","email":"daniel.evans@exprealty.com","email2":"devans6504@gmail.com","phone":"(205) 401-7102","city":"Birmingham","state":"AL","zip":"35226","country":"US","status":"Active","level":"5","years":"0","influencer":"","lat":33.5206824,"lng":-86.8024326},{"id":"279205","name":"Danielle Willis","email":"danielle.willis@exprealty.com","email2":"danielle.exprealty@gmail.com","phone":"(516) 494-9900","city":"Glen Cove","state":"NY","zip":"11542","country":"US","status":"Active","level":"2","years":"0","influencer":"","lat":40.8642028,"lng":-73.6317807},{"id":"279171","name":"Craig Charles Monson","email":"craig.monson@exprealty.com","email2":"preciseappraisals@msn.com","phone":"(480) 799-2655","city":"Mesa","state":"AZ","zip":"85209","country":"US","status":"Active","level":"5","years":"0","influencer":"","lat":33.3895381,"lng":-111.6035965},{"id":"279133","name":"Tamia Tripp","email":"tamia.tripp@exprealty.com","email2":"tamia.ruffin_tripp@yahoo.com","phone":"(410) 598-9141","city":"Plantation","state":"FL","zip":"33325","country":"US","status":"Active","level":"3","years":"0","influencer":"","lat":26.1436969,"lng":-80.3061612},{"id":"279030","name":"Katharyn Sallee Johnson","email":"katharyn.johnson@exprealty.com","email2":"kat@katjohnsonrealtor.com","phone":"(314) 258-5288","city":"Imperial","state":"MO","zip":"63052","country":"US","status":"Active","level":"7","years":"0","influencer":"","lat":38.3697763,"lng":-90.3784525},{"id":"279018","name":"Kaitlynn Pineau","email":"kaitlynn.pineau@exprealty.com","email2":"kaitlynnpineaurealtor@gmail.com","phone":"(916) 204-0930","city":"Lincoln","state":"CA","zip":"95648","country":"US","status":"Active","level":"6","years":"0","influencer":"","lat":38.8915741,"lng":-121.29318},{"id":"279014","name":"Liza Adele Fox","email":"liza.fox@exprealty.com","email2":"lizafoxrealtor@gmail.com","phone":"(253) 381-4790","city":"Tacoma","state":"WA","zip":"98445","country":"US","status":"Active","level":"7","years":"0","influencer":"","lat":47.2455013,"lng":-122.438329},{"id":"278998","name":"Lauren Ashley Gentry","email":"ashley.gentry@exprealty.com","email2":"agentryrealtor1@gmail.com","phone":"(270) 331-5654","city":"Paducah","state":"KY","zip":"42003","country":"US","status":"Active","level":"4","years":"0","influencer":"","lat":37.0833893,"lng":-88.6000478},{"id":"278902","name":"Jessica Jean Louise Hechler","email":"jessica.hechler@exprealty.com","email2":"jessicajlhechler@gmail.com","phone":"(517) 317-7579","city":"Battle Creek","state":"MI","zip":"49017","country":"US","status":"Active","level":"1","years":"0","influencer":"","lat":42.3192548,"lng":-85.1824269},{"id":"278866","name":"Mia Raine Weiland","email":"mia.weiland@exprealty.com","email2":"miaidhomes@gmail.com","phone":"(208) 203-1568","city":"Nampa","state":"ID","zip":"83687","country":"US","status":"Active","level":"6","years":"0","influencer":"","lat":43.5780381,"lng":-116.5616885},{"id":"278811","name":"Vickie L Cortes","email":"vickie.cortes@exprealty.com","email2":"vickie@vickiesunshine.com","phone":"(239) 633-2700","city":"Bonita Springs","state":"FL","zip":"34135","country":"US","status":"Active","level":"3","years":"0","influencer":"","lat":26.339806,"lng":-81.7786972},{"id":"278805","name":"Rachel Jean Hall","email":"rachel.j.hall@exprealty.com","email2":"rachelhallrealestate@gmail.com","phone":"(916) 716-6708","city":"Folsom","state":"CA","zip":"95630","country":"US","status":"Active","level":"5","years":"0","influencer":"","lat":38.6779591,"lng":-121.176058},{"id":"278755","name":"Benecia Renae Lee","email":"benecia.lee@exprealty.com","email2":"beneciarenae@yahoo.com","phone":"(916) 397-6225","city":"Cameron Park","state":"CA","zip":"95682","country":"US","status":"Active","level":"5","years":"0","influencer":"","lat":38.6781746,"lng":-120.99426},{"id":"278612","name":"Michelle Bordin Crochet","email":"michelle.crochet@exprealty.com","email2":"mc@magnoliagroupla.com","phone":"(818) 688-2062","city":"Burbank","state":"CA","zip":"91506","country":"US","status":"Active","level":"5","years":"0","influencer":"","lat":34.1812089,"lng":-118.307201},{"id":"278476","name":"Daphne LaShelle Harrison-Polk","email":"daphne.harrison-polk@expreferral.com","email2":"ahjmom61710@outlook.com","phone":"(214) 763-6872","city":"Odessa","state":"TX","zip":"79762","country":"US","status":"Active","level":"5","years":"0","influencer":"","lat":31.8457149,"lng":-102.367687},{"id":"278152","name":"Ravi Ramachandran","email":"ravi.ramachandran@exprealty.com","email2":"ravi@theramsgroup.com","phone":"(425) 753-4670","city":"Redmond","state":"WA","zip":"98052","country":"US","status":"Active","level":"1","years":"0","influencer":"","lat":47.6694141,"lng":-122.1238767},{"id":"278355","name":"Aaliyah Titiana Marie Cage","email":"aaliyah.cage@exprealty.com","email2":"aaliyahcage@yahoo.com","phone":"(951) 419-8798","city":"Victorville","state":"CA","zip":"92392","country":"US","status":"Active","level":"2","years":"0","influencer":"","lat":34.5361067,"lng":-117.2911565},{"id":"278300","name":"Jaedin Eugene Glenn","email":"jaedin.glenn@exprealty.com","email2":"jaedin28@gmail.com","phone":"(734) 772-7728","city":"Garden City","state":"MI","zip":"48135","country":"US","status":"Active","level":"6","years":"0","influencer":"","lat":42.3255929,"lng":-83.3310422},{"id":"278203","name":"June Kazalia","email":"june.kazalia@exprealty.com","email2":"kazaliajune2023@gmail.com","phone":"3108539361","city":"Brighton","state":"MI","zip":"48116","country":"US","status":"Active","level":"4","years":"0","influencer":"","lat":42.5316918,"lng":-83.7846458},{"id":"276351","name":"Erin Ashley Lewis","email":"erin.lewis@exprealty.com","email2":"ashley@lindseyknight.com","phone":"(214) 336-3200","city":"Frisco","state":"TX","zip":"75034","country":"US","status":"Active","level":"6","years":"0","influencer":"","lat":33.1505998,"lng":-96.8238183},{"id":"276307","name":"Joseph Stumpo","email":"joseph.stumpo@exprealty.com","email2":"jvstumpo88@gmail.com","phone":"(718) 697-9877","city":"Staten Island","state":"NY","zip":"10309","country":"US","status":"Active","level":"3","years":"0","influencer":"","lat":40.5834557,"lng":-74.1496048},{"id":"276278","name":"Makayla Jade Giles","email":"makayla.giles@exprealty.com","email2":"makayla@lopezrealtyteam.com","phone":"(586) 447-2692","city":"Macomb","state":"MI","zip":"48044","country":"US","status":"Active","level":"4","years":"0","influencer":"","lat":42.6741189,"lng":-82.902901},